time,Steering Angle,X Position,Y Position,Z Position, Pitch, Roll, Yaw, X velocity, Y velocity, Z velocity, Lateral Position,Lap Count, Lane Invasion, Collision Sensor
118.34252600115724,-1.9647597074508667,-49.099998474121094,-194.5,-0.004632492084056139,0.0,0.0,0.0,2.3189669628997933e-10,-3.1111149212392775e-08,0.00043221950181759894,0.7547636173276974,0,None,None
118.34252600115724,-1.9647597074508667,-49.099998474121094,-194.5,-0.004626006819307804,0.0,0.0,0.0,-4.929472385839517e-09,-1.761593892979363e-08,0.0006339550018310547,0.7547636173276974,0,None,None
118.38656250038184,-1.9647597074508667,-49.099998474121094,-194.5,-0.004636154044419527,0.0,0.0,0.0,-6.675395347599533e-09,-4.9544457425554356e-08,0.0008650970412418246,0.7547636173276974,0,None,None
118.42629064549692,-1.9647597074508667,-49.099998474121094,-194.5,-0.0046300506219267845,0.0,0.0,0.0,3.702012563167045e-08,7.521064304683023e-08,0.0001720809959806502,0.7547636173276974,0,None,None
118.45282700960524,-1.9647597074508667,-49.099998474121094,-194.5,-0.004616699181497097,0.0,0.0,0.0,-4.15796641561883e-09,-5.0163244225132075e-08,0.0003484487533569336,0.7547636173276974,0,None,None
118.4806955831591,-1.9647597074508667,-49.099998474121094,-194.5,-0.004620132502168417,0.0,0.0,0.0,-8.027249975839368e-09,-6.194548518578813e-08,8.276462176581845e-05,0.7547636173276974,0,None,None
118.50899351690896,-1.9647597074508667,-49.099998474121094,-194.5,-0.004616851918399334,0.0,0.0,0.0,-8.555193886650159e-09,-3.8433654481195845e-08,0.0003584003425203264,0.7547636173276974,0,None,None
118.52193399169482,-1.9647597074508667,-49.099998474121094,-194.5,-0.004611930809915066,0.0,0.0,0.0,3.566002959587422e-08,6.34063610505109e-08,0.0003733205667231232,0.7547636173276974,0,None,None
118.5478351379279,-1.9647597074508667,-49.099998474121094,-194.5,-0.0046095275320112705,0.0,0.0,0.0,-4.727352376221461e-08,6.611025327174502e-08,0.00017584323359187692,0.7547636173276974,0,None,None
118.5606506683398,-1.9647597074508667,-49.099998474121094,-194.5,-0.0046060942113399506,0.0,0.0,0.0,-4.282163956759177e-09,-5.6681610516307046e-08,0.00025586129049770534,0.7547636173276974,0,None,None
118.57460653432645,-1.9647597074508667,-49.099998474121094,-194.5,-0.004607772920280695,0.0,0.0,0.0,-3.5729894598546252e-09,-5.9116683104321055e-08,-4.9967766244662926e-05,0.7547636173276974,0,None,None
118.58839128096588,-1.9647597074508667,-49.099998474121094,-194.5,-0.004607772920280695,0.0,0.0,0.0,3.976812834594057e-08,6.520076567539945e-08,5.688667079084553e-05,0.7547636173276974,0,None,None
118.6144430518616,-1.9647597074508667,-49.099998474121094,-194.5,-0.00460395822301507,0.0,0.0,0.0,3.490494293600932e-08,5.748869469357487e-08,0.00028035641298629344,0.7547636173276974,0,None,None
118.62886068713851,-1.9647597074508667,-49.099998474121094,-194.5,-0.004608344752341509,0.0,0.0,0.0,-4.691921517974151e-09,-6.113460671031135e-08,-0.00029132841154932976,0.7547636173276974,0,None,None
118.64172996417619,-1.9647597074508667,-49.099998474121094,-194.5,-0.004605521913617849,0.0,0.0,0.0,-5.3032135127750735e-08,5.441888717427901e-08,0.0002092123031616211,0.7547636173276974,0,None,None
118.65672358707525,-1.9647597074508667,-49.099998474121094,-194.5,-0.004612731747329235,0.0,0.0,0.0,-5.2265853867083933e-08,5.341522424373579e-08,4.0650367736816406e-05,0.7547636173276974,0,None,None
118.6703331519384,-1.9647597074508667,-49.099998474121094,-194.5,-0.004612731747329235,0.0,0.0,0.0,7.25564885950547e-10,-1.4990148011762017e-10,-3.103732888121158e-05,0.7547636173276974,0,None,None
118.69855455798097,-1.9647597074508667,-49.099998474121094,-194.5,-0.004606361500918865,0.0,0.0,0.0,-3.6733027286572906e-08,-1.1582848458147055e-07,0.00043059824383817613,0.7547636173276974,0,None,None
118.71169690717943,-1.9647597074508667,-49.099998474121094,-194.5,-0.0046006012707948685,0.0,0.0,0.0,1.8605026408380354e-09,1.4601170272854347e-09,0.0004160833195783198,0.7547636173276974,0,None,None
118.72603173856623,-1.9647597074508667,-49.099998474121094,-194.5,-0.0046006012707948685,0.0,0.0,0.0,5.341180386864153e-09,6.26622753685524e-09,-1.4619827197748236e-05,0.7547636173276974,0,None,None
118.73937517241575,-1.9647597074508667,-49.099998474121094,-194.5,-0.0045937346294522285,0.0,0.0,0.0,4.661100838632137e-09,4.2757659635128675e-09,0.00022885322687216103,0.7547636173276974,0,None,None
118.76562953204848,-1.9647597074508667,-49.099998474121094,-194.5,-0.004589805379509926,0.0,0.0,0.0,5.323093965614589e-09,4.16572598638254e-09,0.0002864742127712816,0.7547636173276974,0,None,None
118.77955831238069,-1.9647597074508667,-49.099998474121094,-194.5,-0.004589805379509926,0.0,0.0,0.0,6.378593209177552e-09,4.960747812532418e-09,-5.8140754845226184e-05,0.7547636173276974,0,None,None
118.79264039010741,-1.9647597074508667,-49.099998474121094,-194.5,-0.004588012583553791,0.0,0.0,0.0,7.608310426121534e-09,5.345776266096891e-09,0.00018480776634532958,0.7547636173276974,0,None,None
118.80726850801148,-1.9647597074508667,-49.099998474121094,-194.5,-0.0045928191393613815,0.0,0.0,0.0,1.460851972723276e-08,1.538354688079835e-08,-3.396510874154046e-05,0.7547636173276974,0,None,None
118.83426199411042,-1.9647597074508667,-49.099998474121094,-194.5,-0.004591140430420637,0.0,0.0,0.0,1.0643797843101765e-08,8.34250180048457e-09,0.0001492547889938578,0.7547636173276974,0,None,None
118.84762927447446,-1.9647597074508667,-49.099998474121094,-194.5,-0.004591140430420637,0.0,0.0,0.0,1.1262010879420359e-08,9.690301006060054e-09,5.7573317462811247e-05,0.7547636173276974,0,None,None
118.86320522264577,-1.9647597074508667,-49.099998474121094,-194.5,-0.004600829910486937,0.0,0.0,0.0,1.6111897593873437e-08,1.4943728032790204e-08,-0.0006454848917201161,0.7547636173276974,0,None,None
118.87704392452724,-1.9647597074508667,-49.099998474121094,-194.5,-0.004600829910486937,0.0,0.0,0.0,1.3985448354958407e-08,1.1659196275104478e-08,2.6988982426701114e-06,0.7547636173276974,0,None,None
118.89031081763096,-1.9647597074508667,-49.099998474121094,-194.5,-0.004596404731273651,0.0,0.0,0.0,1.6782641054646774e-08,1.4570100681510212e-08,0.0001522731763543561,0.7547636173276974,0,None,None
118.91631770716049,-1.9647597074508667,-49.099998474121094,-194.5,-0.004593429621309042,0.0,0.0,0.0,-2.683988142848648e-08,-8.325238098905174e-08,0.00022312163491733372,0.7547636173276974,0,None,None
118.92982355342247,-1.9647597074508667,-49.099998474121094,-194.5,-0.004593429621309042,0.0,0.0,0.0,-2.5559700134181185e-08,1.1420487311397665e-07,-1.5249252101057209e-05,0.7547636173276974,0,None,None
118.9436149012763,-1.9647597074508667,-49.099998474121094,-194.5,-0.004595107864588499,0.0,0.0,0.0,1.6050321960392466e-08,1.3633534301504824e-08,-0.00010784625919768587,0.7547636173276974,0,None,None
118.95675973990001,-1.9647597074508667,-49.099998474121094,-194.5,-0.0045938873663544655,0.0,0.0,0.0,1.7513123395929142e-08,1.5327966451650354e-08,-6.656169716734439e-05,0.7547636173276974,0,None,None
118.97035887488164,-1.9647597074508667,-49.099998474121094,-194.5,-0.0046006771735847,0.0,0.0,0.0,-2.140257393534739e-08,-7.937983070860355e-08,-0.00038321016472764313,0.7547636173276974,0,None,None
118.99783645221032,-1.9647597074508667,-49.099998474121094,-194.5,-0.004597778432071209,0.0,0.0,0.0,-1.7964055132324575e-08,-7.136512181205035e-08,0.00021393298811744899,0.7547636173276974,0,None,None
119.01299435948022,-1.9647597074508667,-49.099998474121094,-194.5,-0.0046060942113399506,0.0,0.0,0.0,-2.2705023638991406e-08,1.1579040659626116e-07,-0.0005255079013295472,0.7547636173276974,0,None,None
119.0257993156556,-1.9647597074508667,-49.099998474121094,-194.5,-0.004602508619427681,0.0,0.0,0.0,1.981574548892695e-08,1.6048598894258248e-08,0.000266437535174191,0.7547636173276974,0,None,None
119.03939358727075,-1.9647597074508667,-49.099998474121094,-194.5,-0.004607581999152899,0.0,0.0,0.0,-6.311274347581275e-08,1.8416168146018208e-08,-0.00032842636574059725,0.7547636173276974,0,None,None
119.06742695556022,-1.9647597074508667,-49.099998474121094,-194.5,-0.00460613239556551,0.0,0.0,0.0,2.2583940051390528e-08,1.8635432752489578e-08,0.00010139941878151149,0.7547636173276974,0,None,None
119.08269176655449,-1.9647597074508667,-49.099998474121094,-194.5,-0.004614028614014387,0.0,0.0,0.0,-1.505261515433176e-08,-9.890969465686794e-08,-0.0004938984056934714,0.7547636173276974,0,None,None
119.09563711774535,-1.9647597074508667,-49.099998474121094,-194.5,-0.004614028614014387,0.0,0.0,0.0,6.868006718896424e-10,1.1854544013090162e-09,2.0813940864172764e-05,0.7547636173276974,0,None,None
119.10922328778543,-1.9647597074508667,-49.099998474121094,-194.5,-0.0046149445697665215,0.0,0.0,0.0,3.46283912655565e-09,5.511063605467825e-09,9.81712291832082e-05,0.7547636173276974,0,None,None
119.12200424284674,-1.9647597074508667,-49.099998474121094,-194.5,-0.004623679909855127,0.0,0.0,0.0,4.742498393994765e-09,7.723142125826143e-09,-0.0005538129480555654,0.7547636173276974,0,None,None
119.15105014410801,-1.9647597074508667,-49.099998474121094,-194.5,-0.004626464564353228,0.0,0.0,0.0,6.088253012848099e-09,8.763117342880378e-09,-0.00018698691565077752,0.7547636173276974,0,None,None
119.15105014410801,-1.9647597074508667,-49.099998474121094,-194.5,-0.004646529909223318,0.0,0.0,0.0,7.626464793020205e-09,1.0469950240121761e-08,-0.0011105441953986883,0.7547636173276974,0,None,None
119.18142887973227,-1.9647597074508667,-49.099998474121094,-194.5,-0.00464221928268671,0.0,0.0,0.0,1.3750475424956221e-08,1.924402504016598e-08,0.0003136873128823936,0.7547636173276974,0,None,None
119.1945963317994,-1.9647597074508667,-49.099998474121094,-194.5,-0.004637794569134712,0.0,0.0,0.0,1.0110462689283395e-08,1.1644243791408826e-08,0.0003260278608649969,0.7547636173276974,0,None,None
119.21232030005194,-1.9647597074508667,-49.099998474121094,-194.5,-0.004660262726247311,0.0,0.0,0.0,1.0797950977803339e-08,1.183550768502073e-08,-0.0011928939493373036,0.7547636173276974,0,None,None
119.22533727926202,-1.9647597074508667,-49.099998474121094,-194.5,-0.004652175586670637,0.0,0.0,0.0,1.2140837668539461e-08,1.2895796430711925e-08,0.0006016636034473777,0.7547636173276974,0,None,None
119.2411527831573,-1.9647597074508667,-49.099998474121094,-194.5,-0.004650878719985485,0.0,0.0,0.0,1.755995882035677e-08,1.9873523271485283e-08,0.000508756609633565,0.7547636173276974,0,None,None
119.25451845512725,-1.9647597074508667,-49.099998474121094,-194.5,-0.0046454621478915215,0.0,0.0,0.0,1.5551259835433484e-08,1.5836013389503023e-08,0.0003865909529849887,0.7547636173276974,0,None,None
119.28076568176039,-1.9647597074508667,-49.099998474121094,-194.5,-0.004637641832232475,0.0,0.0,0.0,2.1502650326965522e-08,2.468624060725233e-08,0.0005946540622971952,0.7547636173276974,0,None,None
119.29559304774739,-1.9647597074508667,-49.099998474121094,-194.5,-0.004639587365090847,0.0,0.0,0.0,-2.5248379387221576e-08,-1.0795148597253501e-07,-0.0001237773831235245,0.7547636173276974,0,None,None
119.31296851136722,-1.9647597074508667,-49.099998474121094,-194.5,-0.0046571348793804646,0.0,0.0,0.0,1.991333675732676e-08,2.0535685152367478e-08,-0.0009519767481833696,0.7547636173276974,0,None,None
119.32617347524501,-1.9647597074508667,-49.099998474121094,-194.5,-0.004648780915886164,0.0,0.0,0.0,2.2810914046544895e-08,2.3789581860000908e-08,0.0006110811373218894,0.7547636173276974,0,None,None
119.34379722760059,-1.9647597074508667,-49.099998474121094,-194.5,-0.004665908869355917,0.0,0.0,0.0,-6.606452984669886e-08,1.8895315534450674e-08,-0.0009155463776551187,0.7547636173276974,0,None,None
119.3589175355155,-1.9647597074508667,-49.099998474121094,-194.5,-0.004663619678467512,0.0,0.0,0.0,-2.1660689242253284e-08,-7.750594477329287e-08,0.00015083313337527215,0.7547636173276974,0,None,None
119.37278528162278,-1.9647597074508667,-49.099998474121094,-194.5,-0.004651756025850773,0.0,0.0,0.0,2.877605176365705e-08,3.3356627682223916e-08,0.0002765464596450329,0.7547636173276974,0,None,None
119.38727067434229,-1.9647597074508667,-49.099998474121094,-194.5,-0.004645499866455793,0.0,0.0,0.0,2.338196836149109e-08,2.1354164658760055e-08,0.00043611048022285104,0.7547636173276974,0,None,None
119.41547661297955,-1.9647597074508667,-49.099998474121094,-194.5,-0.00464210519567132,0.0,0.0,0.0,2.289794309717763e-08,2.1075477363297068e-08,0.0002269649412482977,0.7547636173276974,0,None,None
119.42838149913587,-1.9647597074508667,-49.099998474121094,-194.5,-0.004633674398064613,0.0,0.0,0.0,-6.112433936777961e-08,2.1903266755884943e-08,0.0006288290023803711,0.7547636173276974,0,None,None
119.44210881483741,-1.9647597074508667,-49.099998474121094,-194.5,-0.004627189598977566,0.0,0.0,0.0,2.942031152031177e-08,3.165400741522717e-08,0.00015304565022233874,0.7547636173276974,0,None,None
119.45618344214745,-1.9647597074508667,-49.099998474121094,-194.5,-0.004623374901711941,0.0,0.0,0.0,-5.6889359001388584e-08,3.248295854518801e-08,0.00027008532197214663,0.7547636173276974,0,None,None
119.46979720168747,-1.9647597074508667,-49.099998474121094,-194.5,-0.004626884125173092,0.0,0.0,0.0,-6.410325426031704e-08,2.115073272079826e-08,-0.00022038936731405556,0.7547636173276974,0,None,None
119.48486895323731,-1.9647597074508667,-49.099998474121094,-194.5,-0.004626884125173092,0.0,0.0,0.0,0.0,0.0,0.0,0.7547636173276974,0,None,None
119.51301816035993,-1.9647597074508667,-49.099998474121094,-194.5,-0.0046189879067242146,0.0,0.0,0.0,-4.193108793515421e-08,-9.741552275954746e-08,0.0007646512822248042,0.7547636173276974,0,None,None
119.52702178922482,-1.9647597074508667,-49.099998474121094,-194.5,-0.004614677280187607,0.0,0.0,0.0,2.1479413803149328e-09,1.3074582527750067e-09,0.00029176712268963456,0.7547636173276974,0,None,None
119.5401687559206,-1.9647597074508667,-49.099998474121094,-194.5,-0.0046099089086055756,0.0,0.0,0.0,4.1130077121920294e-09,2.3284805195089575e-09,-0.00013183116971049458,0.7547636173276974,0,None,None
119.55509346001782,-1.9647597074508667,-49.099998474121094,-194.5,-0.004604454152286053,0.0,0.0,0.0,4.5248174096457205e-09,2.2844137692601407e-09,0.00039065361488610506,0.7547636173276974,0,None,None
119.56835288112052,-1.9647597074508667,-49.099998474121094,-194.5,-0.004616699181497097,0.0,0.0,0.0,5.129141111837043e-09,1.6365456767530873e-09,-0.0007070827414281666,0.7547636173276974,0,None,None
119.59984079212882,-1.9647597074508667,-49.099998474121094,-194.5,-0.00461795786395669,0.0,0.0,0.0,5.440720318716785e-09,2.1445472064840487e-09,-8.310317934956402e-05,0.7547636173276974,0,None,None
119.61595142097212,-1.9647597074508667,-49.099998474121094,-194.5,-0.004625472705811262,0.0,0.0,0.0,1.1758274354178866e-08,1.6903950239566257e-08,-0.00044395445729605854,0.7547636173276974,0,None,None
119.63018162478693,-1.9647597074508667,-49.099998474121094,-194.5,-0.004621810745447874,0.0,0.0,0.0,3.772020029657597e-09,-3.784589308608588e-10,0.0002458381641190499,0.7547636173276974,0,None,None
119.6430989925284,-1.9647597074508667,-49.099998474121094,-194.5,-0.004613838158547878,0.0,0.0,0.0,7.263714962846279e-09,6.896286652846584e-09,0.0005926465964876115,0.7547636173276974,0,None,None
119.65608047344722,-1.9647597074508667,-49.099998474121094,-194.5,-0.004603118635714054,0.0,0.0,0.0,-3.332980469394897e-08,-1.1644329589444169e-07,0.0002985238970723003,0.7547636173276974,0,None,None
119.68244370003231,-1.9647597074508667,-49.099998474121094,-194.5,-0.004598541185259819,0.0,0.0,0.0,1.0818468787476831e-08,8.915755245197943e-09,0.00033432961208745837,0.7547636173276974,0,None,None
119.69576981221326,-1.9647597074508667,-49.099998474121094,-194.5,-0.0045958710834383965,0.0,0.0,0.0,1.4028310069136296e-08,1.3105592167050872e-08,0.0001863908692030236,0.7547636173276974,0,None,None
119.7109887918923,-1.9647597074508667,-49.099998474121094,-194.5,-0.004602775443345308,0.0,0.0,0.0,1.247321623765174e-08,1.0418992779648306e-08,-0.0004338455037213862,0.7547636173276974,0,None,None
119.72491042991169,-1.9647597074508667,-49.099998474121094,-194.5,-0.004599456675350666,0.0,0.0,0.0,1.452455489214799e-08,1.0209939560468229e-08,0.00019415377755649388,0.7547636173276974,0,None,None
119.73824964673258,-1.9647597074508667,-49.099998474121094,-194.5,-0.00459506968036294,0.0,0.0,0.0,2.1612192924180817e-08,2.08993320427453e-08,0.00032935143099166453,0.7547636173276974,0,None,None
119.76666959770955,-1.9647597074508667,-49.099998474121094,-194.5,-0.004605445545166731,0.0,0.0,0.0,1.5721703050530778e-08,1.2059292231469954e-08,-0.0006342363194562495,0.7547636173276974,0,None,None
119.77914688386954,-1.9647597074508667,-49.099998474121094,-194.5,-0.004599609412252903,0.0,0.0,0.0,1.578428410198285e-08,1.354741474557386e-08,0.0004457950417418033,0.7547636173276974,0,None,None
119.79315643501468,-1.9647597074508667,-49.099998474121094,-194.5,-0.004599609412252903,0.0,0.0,0.0,-6.939392704907732e-08,1.3170089907532656e-08,-6.839752313680947e-05,0.7547636173276974,0,None,None
119.80656445515342,-1.9647597074508667,-49.099998474121094,-194.5,-0.00459644291549921,0.0,0.0,0.0,1.689668138737943e-08,1.4394738734324619e-08,0.000186409946763888,0.7547636173276974,0,None,None
119.83304145582952,-1.9647597074508667,-49.099998474121094,-194.5,-0.00459644291549921,0.0,0.0,0.0,-2.357510631156856e-08,-7.859566863999135e-08,4.744529724121094e-05,0.7547636173276974,0,None,None
119.8457643177826,-1.9647597074508667,-49.099998474121094,-194.5,-0.004592704586684704,0.0,0.0,0.0,-2.5123098268409194e-08,-7.991626915782035e-08,0.00022773741511628032,0.7547636173276974,0,None,None
119.85900869802572,-1.9647597074508667,-49.099998474121094,-194.5,-0.004591254983097315,0.0,0.0,0.0,-2.3647311664376502e-08,1.4275020987497555e-07,6.688595021842048e-05,0.7547636173276974,0,None,None
119.87209359765984,-1.9647597074508667,-49.099998474121094,-194.5,-0.004595985170453787,0.0,0.0,0.0,1.8228684339760548e-08,1.7714052447104223e-08,-0.000318984966725111,0.7547636173276974,0,None,None
119.88641691603698,-1.9647597074508667,-49.099998474121094,-194.5,-0.004618339240550995,0.0,0.0,0.0,-2.429522183433619e-08,-1.0898590829810928e-07,-0.0012330913450568914,0.7547636173276974,0,None,None
119.90363746345975,-1.9647597074508667,-49.099998474121094,-194.5,-0.004618339240550995,0.0,0.0,0.0,-6.355589665663075e-11,-4.36013031235305e-10,-3.7193296975601697e-07,0.7547636173276974,0,None,None
119.93087652069516,-1.9647597074508667,-49.099998474121094,-194.5,-0.004613570868968964,0.0,0.0,0.0,2.3637858337366424e-09,4.581060863984021e-09,0.0003509044472593814,0.7547636173276974,0,None,None
119.94619211391546,-1.9647597074508667,-49.099998474121094,-194.5,-0.004620017949491739,0.0,0.0,0.0,9.467988615341483e-10,1.1130004695658613e-09,-0.00040247917058877647,0.7547636173276974,0,None,None
119.9614539083559,-1.9647597074508667,-49.099998474121094,-194.5,-0.004625053144991398,0.0,0.0,0.0,-4.026482969265999e-08,-9.68901048281623e-08,-0.00031486034276895225,0.7547636173276974,0,None,None
119.97472655237652,-1.9647597074508667,-49.099998474121094,-194.5,-0.004612388554960489,0.0,0.0,0.0,4.74479300294206e-09,3.1482672024907288e-09,0.0006190967396833003,0.7547636173276974,0,None,None
119.9868564021308,-1.9647597074508667,-49.099998474121094,-194.5,-0.004623756278306246,0.0,0.0,0.0,6.1445155630224235e-09,4.649001628109772e-09,-0.0006717013893648982,0.7547636173276974,0,None,None
120.01653511379845,-1.9647597074508667,-49.099998474121094,-194.5,-0.004620322957634926,0.0,0.0,0.0,7.883307340250667e-09,5.713198358847649e-09,0.00024378775560762733,0.7547636173276974,0,None,None
120.03182009165175,-1.9647597074508667,-49.099998474121094,-194.5,-0.00462543498724699,0.0,0.0,0.0,9.493654751224767e-09,7.64605623260195e-09,-0.0003188133123330772,0.7547636173276974,0,None,None
120.04543271870352,-1.9647597074508667,-49.099998474121094,-194.5,-0.004621772561222315,0.0,0.0,0.0,1.1096042307201515e-08,9.083682250832226e-09,0.000256848317803815,0.7547636173276974,0,None,None
120.05987915047444,-1.9647597074508667,-49.099998474121094,-194.5,-0.004621772561222315,0.0,0.0,0.0,1.6141436631755823e-08,2.0004645051585612e-08,-3.479957376839593e-05,0.7547636173276974,0,None,None
120.0726165578235,-1.9647597074508667,-49.099998474121094,-194.5,-0.0046137236058712006,0.0,0.0,0.0,-7.229532883457068e-08,1.2743084809585525e-08,0.00015906333283055574,0.7547636173276974,0,None,None
120.09953240049072,-1.9647597074508667,-49.099998474121094,-194.5,-0.004610748030245304,0.0,0.0,0.0,1.3620963912330808e-08,1.488086098788699e-08,0.0002127027401002124,0.7547636173276974,0,None,None
120.115109390812,-1.9647597074508667,-49.099998474121094,-194.5,-0.004619254730641842,0.0,0.0,0.0,1.9460253852798814e-08,2.5721172747239507e-08,-0.0005202770116738975,0.7547636173276974,0,None,None
120.12896416825242,-1.9647597074508667,-49.099998474121094,-194.5,-0.004617652855813503,0.0,0.0,0.0,1.3683211008697072e-08,1.2882910738198916e-08,0.00011206149792997167,0.7547636173276974,0,None,None
120.14278129232116,-1.9647597074508667,-49.099998474121094,-194.5,-0.004609870724380016,0.0,0.0,0.0,2.2686403866600813e-08,2.7182103679024294e-08,0.00048339366912841797,0.7547636173276974,0,None,None
120.15521808457561,-1.9647597074508667,-49.099998474121094,-194.5,-0.004608039744198322,0.0,0.0,0.0,1.7680463315628003e-08,1.7442797428657286e-08,0.00012983322085347027,0.7547636173276974,0,None,None
120.18199254781939,-1.9647597074508667,-49.099998474121094,-194.5,-0.004606208764016628,0.0,0.0,0.0,-6.606499880490446e-08,1.8370302612424894e-08,0.00013197421503718942,0.7547636173276974,0,None,None
120.1946149545256,-1.9647597074508667,-49.099998474121094,-194.5,-0.004602126777172089,0.0,0.0,0.0,2.556921963048353e-08,2.9355486930171537e-08,0.00031103609944693744,0.7547636173276974,0,None,None
120.2082527114544,-1.9647597074508667,-49.099998474121094,-194.5,-0.004604225046932697,0.0,0.0,0.0,2.1023216945081913e-08,2.0832498393019705e-08,-0.00011944770812988281,0.7547636173276974,0,None,None
120.2221895812545,-1.9647597074508667,-49.099998474121094,-194.5,-0.004603118635714054,0.0,0.0,0.0,-6.391388041038226e-08,2.1720811815839625e-08,7.929802086437121e-05,0.7547636173276974,0,None,None
120.24858088814653,-1.9647597074508667,-49.099998474121094,-194.5,-0.0046013640239834785,0.0,0.0,0.0,2.6653570017742823e-08,3.1294007385440636e-08,0.00012804508151020855,0.7547636173276974,0,None,None
120.26197767746635,-1.9647597074508667,-49.099998474121094,-194.5,-0.0046013640239834785,0.0,0.0,0.0,2.2300440605249605e-08,2.1328007804299887e-08,1.2049674296576995e-05,0.7547636173276974,0,None,None
120.27532781870104,-1.9647597074508667,-49.099998474121094,-194.5,-0.0046013640239834785,0.0,0.0,0.0,-1.4809092618861541e-08,-9.252725874375756e-08,1.8334389096708037e-05,0.7547636173276974,0,None,None
120.29206898086704,-1.9647597074508667,-49.099998474121094,-194.5,-0.004616279620677233,0.0,0.0,0.0,2.2354493367515715e-08,2.4652935692870415e-08,0.00024717330234125257,0.7547636173276974,0,None,None
120.30531294201501,-1.9647597074508667,-49.099998474121094,-194.5,-0.004616279620677233,0.0,0.0,0.0,0.0,0.0,0.0,0.7547636173276974,0,None,None
120.32097762380727,-1.9647597074508667,-49.099998474121094,-194.5,-0.004614677280187607,0.0,0.0,0.0,-9.209533136100845e-10,1.5148694521016637e-09,0.00041551588219590485,0.7547636173276974,0,None,None
120.34938934654929,-1.9647597074508667,-49.099998474121094,-194.5,-0.004609298426657915,0.0,0.0,0.0,-8.200826329129995e-08,1.2940044591402966e-08,0.00035813808790408075,0.7547636173276974,0,None,None
120.36202929285355,-1.9647597074508667,-49.099998474121094,-194.5,-0.004599494859576225,0.0,0.0,0.0,-1.4522356650559232e-09,3.5649851959362877e-09,0.0007404088973999023,0.7547636173276974,0,None,None
120.37582377740182,-1.9647597074508667,-49.099998474121094,-194.5,-0.004589843563735485,0.0,0.0,0.0,-5.874836728203547e-10,7.851050476403998e-09,0.0003986310912296176,0.7547636173276974,0,None,None
120.38901733909734,-1.9647597074508667,-49.099998474121094,-194.5,-0.004584998823702335,0.0,0.0,0.0,-4.2288895940600923e-08,-8.79099388839677e-08,0.00034961701021529734,0.7547636173276974,0,None,None
120.40210981410928,-1.9647597074508667,-49.099998474121094,-194.5,-0.004603995941579342,0.0,0.0,0.0,1.6464153373974e-09,1.439411345671715e-08,-0.001052436768077314,0.7547636173276974,0,None,None
120.43260294222273,-1.9647597074508667,-49.099998474121094,-194.5,-0.004598197992891073,0.0,0.0,0.0,2.342840588198669e-09,1.3896796602352879e-08,0.00041657924884930253,0.7547636173276974,0,None,None
120.44598070927896,-1.9647597074508667,-49.099998474121094,-194.5,-0.004593810997903347,0.0,0.0,0.0,3.7287573029232135e-09,1.580592901007094e-08,0.0003092050610575825,0.7547636173276974,0,None,None
120.45964752347209,-1.9647597074508667,-49.099998474121094,-194.5,-0.004591445904225111,0.0,0.0,0.0,5.00454788721072e-09,1.6317539319743446e-08,0.00016193866031244397,0.7547636173276974,0,None,None
120.47314002760686,-1.9647597074508667,-49.099998474121094,-194.5,-0.004588928073644638,0.0,0.0,0.0,7.419434400190994e-09,1.880792233066586e-08,6.7281721385370474e-06,0.7547636173276974,0,None,None
120.50081320409663,-1.9647597074508667,-49.099998474121094,-194.5,-0.004588928073644638,0.0,0.0,0.0,8.750570934523694e-09,1.8734104045847744e-08,2.9878616260248236e-05,0.7547636173276974,0,None,None
120.51415400975384,-1.9647597074508667,-49.099998474121094,-194.5,-0.004586372058838606,0.0,0.0,0.0,9.644014475895801e-09,1.9254947858371452e-08,0.0001349163067061454,0.7547636173276974,0,None,None
120.5277047206182,-1.9647597074508667,-49.099998474121094,-194.5,-0.004586372058838606,0.0,0.0,0.0,1.0597676514123577e-08,1.8301529181030673e-08,3.653049498097971e-05,0.7547636173276974,0,None,None
120.54176825773902,-1.9647597074508667,-49.099998474121094,-194.5,-0.004587783478200436,0.0,0.0,0.0,1.1126748411527387e-08,1.708970565061918e-08,1.3666152881341986e-05,0.7547636173276974,0,None,None
120.55534566496499,-1.9647597074508667,-49.099998474121094,-194.5,-0.004589233081787825,0.0,0.0,0.0,1.8142323199299426e-08,3.0459251121328634e-08,-0.0001189422546303831,0.7547636173276974,0,None,None
120.58311139256693,-1.9647597074508667,-49.099998474121094,-194.5,-0.004589233081787825,0.0,0.0,0.0,1.4641075019028449e-08,2.2248906716981764e-08,-6.548404780915007e-05,0.7547636173276974,0,None,None
120.5953396114055,-1.9647597074508667,-49.099998474121094,-194.5,-0.004585227929055691,0.0,0.0,0.0,-2.7438945338076337e-08,-7.597877527132368e-08,0.000378756521968171,0.7547636173276974,0,None,None
120.60974178579636,-1.9647597074508667,-49.099998474121094,-194.5,-0.004589958116412163,0.0,0.0,0.0,-2.626054040888448e-08,-7.481826713728879e-08,-0.0003162384091410786,0.7547636173276974,0,None,None
120.62399178487249,-1.9647597074508667,-49.099998474121094,-194.5,-0.0045933532528579235,0.0,0.0,0.0,-2.5756152766120977e-08,-1.0208268008682353e-07,1.986503593798261e-05,0.7547636173276974,0,None,None
120.6506711023394,-1.9647597074508667,-49.099998474121094,-194.5,-0.004591674543917179,0.0,0.0,0.0,1.885025113779193e-08,2.4782488949881554e-08,9.4857212388888e-05,0.7547636173276974,0,None,None
120.66335326177068,-1.9647597074508667,-49.099998474121094,-194.5,-0.00458885170519352,0.0,0.0,0.0,-2.4574442036850996e-08,-1.0015506290983467e-07,0.0002112960792146623,0.7547636173276974,0,None,None
120.67621539463289,-1.9647597074508667,-49.099998474121094,-194.5,-0.004587211646139622,0.0,0.0,0.0,-6.633555216239984e-08,2.497401396794885e-08,0.0001188564274343662,0.7547636173276974,0,None,None
120.69039109093137,-1.9647597074508667,-49.099998474121094,-194.5,-0.004593543708324432,0.0,0.0,0.0,-6.58519923035783e-08,2.362901341257384e-08,-0.00014346599346026778,0.7547636173276974,0,None,None
120.71727695898153,-1.9647597074508667,-49.099998474121094,-194.5,-0.004592475946992636,0.0,0.0,0.0,2.0637912712118123e-08,2.483409566877981e-08,7.336139242397621e-05,0.7547636173276974,0,None,None
120.73029180266894,-1.9647597074508667,-49.099998474121094,-194.5,-0.004592475946992636,0.0,0.0,0.0,0.0,0.0,0.0,0.7547636173276974,0,None,None
120.74367708829232,-1.9647597074508667,-49.099998474121094,-194.5,-0.004592475946992636,0.0,0.0,0.0,6.850491285348426e-09,1.1438341829261844e-08,-0.00010986804409185424,0.7547636173276974,0,None,None
120.7597358089406,-1.9647597074508667,-49.099998474121094,-194.5,-0.0046091461554169655,0.0,0.0,0.0,2.2676054367565257e-09,3.149202454366673e-09,-0.0009341573459096253,0.7547636173276974,0,None,None
120.77467114129104,-1.9647597074508667,-49.099998474121094,-194.5,-0.004613685421645641,0.0,0.0,0.0,4.788383911602523e-09,5.3458282245344435e-09,0.00012596130545716733,0.7547636173276974,0,None,None
120.78809814923443,-1.9647597074508667,-49.099998474121094,-194.5,-0.004612464923411608,0.0,0.0,0.0,6.2802381073368e-09,6.394400120512955e-09,8.655547571834177e-05,0.7547636173276974,0,None,None
120.81487341900356,-1.9647597074508667,-49.099998474121094,-194.5,-0.004610633943229914,0.0,0.0,0.0,6.198621615993716e-09,7.200163576470686e-09,0.00013306140317581594,0.7547636173276974,0,None,None
120.83066202071495,-1.9647597074508667,-49.099998474121094,-194.5,-0.004621696192771196,0.0,0.0,0.0,5.994729601610516e-09,7.543360602824123e-09,-0.0006644725799560547,0.7547636173276974,0,None,None
120.84504831791855,-1.9647597074508667,-49.099998474121094,-194.5,-0.004623145796358585,0.0,0.0,0.0,1.0019566509811284e-08,1.2986896003042148e-08,-9.558677265886217e-05,0.7547636173276974,0,None,None
120.85829006810673,-1.9647597074508667,-49.099998474121094,-194.5,-0.004613685421645641,0.0,0.0,0.0,8.38118019430567e-09,8.960122421797223e-09,0.00044709682697430253,0.7547636173276974,0,None,None
120.8707485080231,-1.9647597074508667,-49.099998474121094,-194.5,-0.004618491977453232,0.0,0.0,0.0,-3.38103163244341e-08,-9.064693529126089e-08,-0.00030735493055544794,0.7547636173276974,0,None,None
120.90049317409284,-1.9647597074508667,-49.099998474121094,-194.5,-0.004623222164809704,0.0,0.0,0.0,1.0885791823511681e-08,1.000823335317591e-08,-0.0002997445990331471,0.7547636173276974,0,None,None
120.91328171291389,-1.9647597074508667,-49.099998474121094,-194.5,-0.004617919679731131,0.0,0.0,0.0,1.6428520765998655e-08,1.773299018736907e-08,0.00040084836655296385,0.7547636173276974,0,None,None
120.92737347469665,-1.9647597074508667,-49.099998474121094,-194.5,-0.004617919679731131,0.0,0.0,0.0,1.2543456051616886e-08,1.1607101058075386e-08,-3.80468372895848e-05,0.7547636173276974,0,None,None
120.94198069744743,-1.9647597074508667,-49.099998474121094,-194.5,-0.00462139118462801,0.0,0.0,0.0,1.365738899750113e-08,1.3135184495638441e-08,3.236293559893966e-05,0.7547636173276974,0,None,None
120.955974399345,-1.9647597074508667,-49.099998474121094,-194.5,-0.004619445651769638,0.0,0.0,0.0,1.3815649069215397e-08,1.2252403536194834e-08,0.0001026964164339006,0.7547636173276974,0,None,None
120.98206104920246,-1.9647597074508667,-49.099998474121094,-194.5,-0.004613189492374659,0.0,0.0,0.0,1.4177095941647622e-08,1.2592540343803194e-08,0.0004901361535303295,0.7547636173276974,0,None,None
120.9968091158662,-1.9647597074508667,-49.099998474121094,-194.5,-0.004617614671587944,0.0,0.0,0.0,-7.139087898622165e-08,1.3631125561630597e-08,-0.0002869462769012898,0.7547636173276974,0,None,None
121.00951614254154,-1.9647597074508667,-49.099998474121094,-194.5,-0.004612769931554794,0.0,0.0,0.0,1.523198456254704e-08,1.5686367760281428e-08,0.000367393484339118,0.7547636173276974,0,None,None
121.02353154146113,-1.9647597074508667,-49.099998474121094,-194.5,-0.004612769931554794,0.0,0.0,0.0,-2.7419611470236305e-08,-1.0790194693299782e-07,4.349708615336567e-05,0.7547636173276974,0,None,None
121.05056872148998,-1.9647597074508667,-49.099998474121094,-194.5,-0.004611282143741846,0.0,0.0,0.0,1.6658630030974564e-08,1.8417591007846568e-08,0.00012801169941667467,0.7547636173276974,0,None,None
121.06340148323216,-1.9647597074508667,-49.099998474121094,-194.5,-0.004607848823070526,0.0,0.0,0.0,-2.2127377263814196e-08,-9.695305180912328e-08,0.000257706647971645,0.7547636173276974,0,None,None
121.07746392977424,-1.9647597074508667,-49.099998474121094,-194.5,-0.0046099089086055756,0.0,0.0,0.0,1.6172673866776677e-08,1.926430748255825e-08,-0.00014074801583774388,0.7547636173276974,0,None,None
121.09057716582902,-1.9647597074508667,-49.099998474121094,-194.5,-0.004609489347785711,0.0,0.0,0.0,1.4949765869687326e-08,1.9373462833982558e-08,-0.00012188911205157638,0.7547636173276974,0,None,None
121.10455832653679,-1.9647597074508667,-49.099998474121094,-194.5,-0.0046105957590043545,0.0,0.0,0.0,-7.07380607423147e-08,1.9334574830054407e-08,-7.604598795296624e-05,0.7547636173276974,0,None,None
121.1319319207687,-1.9647597074508667,-49.099998474121094,-194.5,-0.0046105957590043545,0.0,0.0,0.0,2.1080053258515363e-08,3.0167566222871756e-08,5.188941941014491e-05,0.7547636173276974,0,None,None
121.14702325244434,-1.9647597074508667,-49.099998474121094,-194.5,-0.0046105957590043545,0.0,0.0,0.0,-2.01588370996042e-10,-6.200858715388335e-10,-4.044055822305381e-05,0.7547636173276974,0,None,None
121.15996293560602,-1.9647597074508667,-49.099998474121094,-194.5,-0.004601859953254461,0.0,0.0,0.0,-8.543485563450304e-08,3.205602727707202e-10,0.000612339936196804,0.7547636173276974,0,None,None
121.17381055396982,-1.9647597074508667,-49.099998474121094,-194.5,-0.004592208657413721,0.0,0.0,0.0,9.15754416741521e-10,1.6342516229173043e-09,0.0004487800470087677,0.7547636173276974,0,None,None
121.1867733488325,-1.9647597074508667,-49.099998474121094,-194.5,-0.004608382936567068,0.0,0.0,0.0,2.879059213256596e-09,3.1052660443009472e-09,-0.0009105491335503757,0.7547636173276974,0,None,None
121.21677330532111,-1.9647597074508667,-49.099998474121094,-194.5,-0.004601440392434597,0.0,0.0,0.0,3.6797600522220364e-09,2.796890274936459e-09,0.0005070829065516591,0.7547636173276974,0,None,None
121.23280997970141,-1.9647597074508667,-49.099998474121094,-194.5,-0.004610138013958931,0.0,0.0,0.0,5.06387243248696e-09,2.627650985687069e-09,-0.0005170631338842213,0.7547636173276974,0,None,None
121.24702049256302,-1.9647597074508667,-49.099998474121094,-194.5,-0.004607772920280695,0.0,0.0,0.0,5.898237898094294e-09,1.6949672776434e-09,0.000155100817210041,0.7547636173276974,0,None,None
121.2614253575448,-1.9647597074508667,-49.099998474121094,-194.5,-0.004607772920280695,0.0,0.0,0.0,6.6930585518321095e-09,9.489249386263054e-10,6.065368506824598e-05,0.7547636173276974,0,None,None
121.27591258310713,-1.9647597074508667,-49.099998474121094,-194.5,-0.004598655737936497,0.0,0.0,0.0,9.59490975560584e-09,2.5049433638457685e-09,0.0006118774181231856,0.7547636173276974,0,None,None
121.28833058220334,-1.9647597074508667,-49.099998474121094,-194.5,-0.004599799867719412,0.0,0.0,0.0,-7.553249758984748e-08,2.2393176202228915e-09,-7.981299859238788e-05,0.7547636173276974,0,None,None
121.3147563424427,-1.9647597074508667,-49.099998474121094,-194.5,-0.0045919036492705345,0.0,0.0,0.0,1.0987224463576695e-08,3.589022412597842e-09,0.0006300306413322687,0.7547636173276974,0,None,None
121.32846311409958,-1.9647597074508667,-49.099998474121094,-194.5,-0.0045919036492705345,0.0,0.0,0.0,1.2038780639045399e-08,3.68422137242419e-09,4.4789314415538684e-05,0.7547636173276974,0,None,None
121.34241321892478,-1.9647597074508667,-49.099998474121094,-194.5,-0.00458869943395257,0.0,0.0,0.0,1.4513028112617121e-08,7.479044938918378e-09,0.0002315902675036341,0.7547636173276974,0,None,None
121.35537944571115,-1.9647597074508667,-49.099998474121094,-194.5,-0.004586562979966402,0.0,0.0,0.0,1.5479942661045243e-08,7.198096341198834e-09,0.0001508712739450857,0.7547636173276974,0,None,None
121.38219934352674,-1.9647597074508667,-49.099998474121094,-194.5,-0.004587631206959486,0.0,0.0,0.0,-2.5699209871277162e-08,-8.987403532501048e-08,-7.695197564316913e-05,0.7547636173276974,0,None,None
121.39496999629773,-1.9647597074508667,-49.099998474121094,-194.5,-0.004584960639476776,0.0,0.0,0.0,1.8386998590358417e-08,1.1016584089418302e-08,0.00019971847359556705,0.7547636173276974,0,None,None
121.40830901102163,-1.9647597074508667,-49.099998474121094,-194.5,-0.004584960639476776,0.0,0.0,0.0,1.8036441673530135e-08,1.1901688523607845e-08,-1.956462801899761e-05,0.7547636173276974,0,None,None
121.42165168211795,-1.9647597074508667,-49.099998474121094,-194.5,-0.004584960639476776,0.0,0.0,0.0,1.9347323743090783e-08,1.2637418222993801e-08,-5.098342808196321e-05,0.7547636173276974,0,None,None
121.44995031156577,-1.9647597074508667,-49.099998474121094,-194.5,-0.004593620076775551,0.0,0.0,0.0,2.194305004366015e-08,1.8675134327850174e-08,-0.0005038690287619829,0.7547636173276974,0,None,None
121.46487853885628,-1.9647597074508667,-49.099998474121094,-194.5,-0.00460052490234375,0.0,0.0,0.0,-2.147508304517487e-08,-7.988977301920386e-08,-0.00044357776641845703,0.7547636173276974,0,None,None
121.47700960398652,-1.9647597074508667,-49.099998474121094,-194.5,-0.00459491740912199,0.0,0.0,0.0,1.8967130088753947e-08,1.561145701600708e-08,0.0004424619546625763,0.7547636173276974,0,None,None
121.49566102423705,-1.9647597074508667,-49.099998474121094,-194.5,-0.004629287403076887,0.0,0.0,0.0,1.8537971158139044e-08,1.3617720284742063e-08,-0.0017386054387316108,0.7547636173276974,0,None,None
121.51114580989815,-1.9647597074508667,-49.099998474121094,-194.5,-0.004633445758372545,0.0,0.0,0.0,2.2060707038917826e-08,1.7856500278412568e-08,-0.0002544689050409943,0.7547636173276974,0,None,None
121.52472261548974,-1.9647597074508667,-49.099998474121094,-194.5,-0.004627875983715057,0.0,0.0,0.0,1.8582150929091767e-08,1.2459581810730924e-08,0.00039246081723831594,0.7547636173276974,0,None,None
121.54181600757875,-1.9647597074508667,-49.099998474121094,-194.5,-0.0046425629407167435,0.0,0.0,0.0,2.4735353321148068e-08,2.3655056580196288e-08,-0.0008134555537253618,0.7547636173276974,0,None,None
121.55707923346199,-1.9647597074508667,-49.099998474121094,-194.5,-0.0046425629407167435,0.0,0.0,0.0,2.3359065792760703e-09,1.891023115874191e-09,-2.617835889395792e-05,0.7547636173276974,0,None,None
121.57244606711902,-1.9647597074508667,-49.099998474121094,-194.5,-0.0046404264867305756,0.0,0.0,0.0,2.7596760432402334e-09,1.3247490882051238e-09,0.00016558646166231483,0.7547636173276974,0,None,None
121.58725625020452,-1.9647597074508667,-49.099998474121094,-194.5,-0.00464286794885993,0.0,0.0,0.0,4.224686822595913e-09,4.1444412346436366e-09,-0.00014521597768180072,0.7547636173276974,0,None,None
121.61679969751276,-1.9647597074508667,-49.099998474121094,-194.5,-0.00463600130751729,0.0,0.0,0.0,-3.7191636437228226e-08,-9.211086648974742e-08,0.0004757737915497273,0.7547636173276974,0,None,None
121.63103704922833,-1.9647597074508667,-49.099998474121094,-194.5,-0.004631767049431801,0.0,0.0,0.0,6.989888223785101e-09,8.854466493346536e-09,0.00028532504802569747,0.7547636173276974,0,None,None
121.64534057234414,-1.9647597074508667,-49.099998474121094,-194.5,-0.004628486465662718,0.0,0.0,0.0,7.464906914833591e-09,8.811929852470257e-09,0.00022069930855650455,0.7547636173276974,0,None,None
121.6618941493798,-1.9647597074508667,-49.099998474121094,-194.5,-0.004638137761503458,0.0,0.0,0.0,8.586502175944588e-09,8.912556026530183e-09,-0.0005537414690479636,0.7547636173276974,0,None,None
121.67575483419932,-1.9647597074508667,-49.099998474121094,-194.5,-0.004631919786334038,0.0,0.0,0.0,1.4891156752128154e-08,2.013633881858823e-08,0.00043077467125840485,0.7547636173276974,0,None,None
121.69148302846588,-1.9647597074508667,-49.099998474121094,-194.5,-0.0046356962993741035,0.0,0.0,0.0,-3.1662992228120856e-08,-8.661401551535164e-08,-0.00022954463202040642,0.7547636173276974,0,None,None
121.70749047235586,-1.9647597074508667,-49.099998474121094,-194.5,-0.004629478324204683,0.0,0.0,0.0,1.1110595998786721e-08,1.1595802540398381e-08,0.0008386516128666699,0.7547636173276974,0,None,None
121.72007593535818,-1.9647597074508667,-49.099998474121094,-194.5,-0.004629478324204683,0.0,0.0,0.0,1.925471160291181e-08,2.6327350965971164e-08,-4.9214362661587074e-05,0.7547636173276974,0,None,None
121.74857093882747,-1.9647597074508667,-49.099998474121094,-194.5,-0.004623260349035263,0.0,0.0,0.0,1.5385891671826357e-08,1.7555596087959202e-08,0.000502467155456543,0.7547636173276974,0,None,None
121.76203199126758,-1.9647597074508667,-49.099998474121094,-194.5,-0.0046176910400390625,0.0,0.0,0.0,1.6504815292250896e-08,1.719562092716842e-08,0.000397830008296296,0.7547636173276974,0,None,None
121.77538277138956,-1.9647597074508667,-49.099998474121094,-194.5,-0.004612579010426998,0.0,0.0,0.0,2.0343076556628148e-08,2.1755187873395698e-08,0.0003662490635178983,0.7547636173276974,0,None,None
121.79042284493335,-1.9647597074508667,-49.099998474121094,-194.5,-0.004609832540154457,0.0,0.0,0.0,-2.422016542880101e-08,-8.150320240929432e-08,0.00044823644566349685,0.7547636173276974,0,None,None
121.8162768559996,-1.9647597074508667,-49.099998474121094,-194.5,-0.004604491870850325,0.0,0.0,0.0,-6.53292957508711e-08,1.5571963274396694e-08,0.0003982972993981093,0.7547636173276974,0,None,None
121.83101704274304,-1.9647597074508667,-49.099998474121094,-194.5,-0.004607887007296085,0.0,0.0,0.0,2.0087604468699283e-08,1.5342626724645925e-08,-0.00022208213340491056,0.7547636173276974,0,None,None
121.84501967974938,-1.9647597074508667,-49.099998474121094,-194.5,-0.004607887007296085,0.0,0.0,0.0,2.4579957624837334e-08,2.2834173663e-08,3.637790723587386e-05,0.7547636173276974,0,None,None
121.85931263049133,-1.9647597074508667,-49.099998474121094,-194.5,-0.004603080451488495,0.0,0.0,0.0,2.0627650698656907e-08,1.409911387639795e-08,0.0003888893115799874,0.7547636173276974,0,None,None
121.87207838729955,-1.9647597074508667,-49.099998474121094,-194.5,-0.00460472097620368,0.0,0.0,0.0,2.0251039956065142e-08,1.1269148281201069e-08,-0.0001115226696128957,0.7547636173276974,0,None,None
121.89920954150148,-1.9647597074508667,-49.099998474121094,-194.5,-0.004600639455020428,0.0,0.0,0.0,2.1972084596200148e-08,1.2257016734906756e-08,0.0003048658254556358,0.7547636173276974,0,None,None
121.91681873542257,-1.9647597074508667,-49.099998474121094,-194.5,-0.004624290391802788,0.0,0.0,0.0,-5.981978290492407e-08,2.2133798793788628e-08,-0.0012724304106086493,0.7547636173276974,0,None,None
121.92991186515428,-1.9647597074508667,-49.099998474121094,-194.5,-0.004618148785084486,0.0,0.0,0.0,2.788412878373947e-08,2.1762424751159415e-08,0.0004484319651965052,0.7547636173276974,0,None,None
121.9454800367821,-1.9647597074508667,-49.099998474121094,-194.5,-0.0046244049444794655,0.0,0.0,0.0,2.614518379573383e-08,1.6463122420873333e-08,-0.000383162492653355,0.7547636173276974,0,None,None
121.95969976414926,-1.9647597074508667,-49.099998474121094,-194.5,-0.0046244049444794655,0.0,0.0,0.0,0.0,0.0,0.0,0.7547636173276974,0,None,None
121.97535505448468,-1.9647597074508667,-49.099998474121094,-194.5,-0.004626808222383261,0.0,0.0,0.0,1.4932124425826032e-09,-1.8681827196331824e-09,0.00029196261311881244,0.7547636173276974,0,None,None
121.98892302834429,-1.9647597074508667,-49.099998474121094,-194.5,-0.004626808222383261,0.0,0.0,0.0,-4.054163582623005e-08,-1.0059592625566438e-07,6.833553197793663e-05,0.7547636173276974,0,None,None
122.01610316080041,-1.9647597074508667,-49.099998474121094,-194.5,-0.004620322957634926,0.0,0.0,0.0,3.73889674776251e-09,5.66954538872011e-10,0.0004042196087539196,0.7547636173276974,0,None,None
122.0308755536098,-1.9647597074508667,-49.099998474121094,-194.5,-0.004623222164809704,0.0,0.0,0.0,4.426685240588313e-09,-5.1632864650486e-11,-0.00018425464804749936,0.7547636173276974,0,None,None
122.04366113548167,-1.9647597074508667,-49.099998474121094,-194.5,-0.004617347382009029,0.0,0.0,0.0,5.512015288644534e-09,8.159230513449245e-10,0.00044142245315015316,0.7547636173276974,0,None,None
122.05690147005953,-1.9647597074508667,-49.099998474121094,-194.5,-0.004611205775290728,0.0,0.0,0.0,8.113341110060901e-09,4.665639874446015e-09,0.0001952505117515102,0.7547636173276974,0,None,None
122.08371117082424,-1.9647597074508667,-49.099998474121094,-194.5,-0.0046099089086055756,0.0,0.0,0.0,-7.659078704591593e-08,5.666950908533863e-09,9.256839257432148e-05,0.7547636173276974,0,None,None
122.09753938694485,-1.9647597074508667,-49.099998474121094,-194.5,-0.0046099089086055756,0.0,0.0,0.0,1.0114789006365754e-08,7.672028345950821e-09,-1.402378074999433e-05,0.7547636173276974,0,None,None
122.11073990934528,-1.9647597074508667,-49.099998474121094,-194.5,-0.004607772920280695,0.0,0.0,0.0,1.1023954193944974e-08,8.663698203292824e-09,0.00016911506827455014,0.7547636173276974,0,None,None
122.12520033423789,-1.9647597074508667,-49.099998474121094,-194.5,-0.0046128081157803535,0.0,0.0,0.0,-2.9092978692801807e-08,1.0917659665210522e-07,-0.00010123252286575735,0.7547636173276974,0,None,None
122.13934500631876,-1.9647597074508667,-49.099998474121094,-194.5,-0.004610290285199881,0.0,0.0,0.0,1.4057094155361938e-08,1.2342417754496182e-08,0.0001818942982936278,0.7547636173276974,0,None,None
122.16625272319652,-1.9647597074508667,-49.099998474121094,-194.5,-0.004610290285199881,0.0,0.0,0.0,-2.8227708170902588e-08,-1.1187994886086017e-07,2.5157927666441537e-05,0.7547636173276974,0,None,None
122.1788089836482,-1.9647597074508667,-49.099998474121094,-194.5,-0.004605521913617849,0.0,0.0,0.0,1.612266409267704e-08,1.4591664765362111e-08,0.0003363609139341861,0.7547636173276974,0,None,None
122.19335794844665,-1.9647597074508667,-49.099998474121094,-194.5,-0.0046100616455078125,0.0,0.0,0.0,1.6226517018935738e-08,1.3961011902097198e-08,-0.00029866694239899516,0.7547636173276974,0,None,None
122.20835755788721,-1.9647597074508667,-49.099998474121094,-194.5,-0.004617500118911266,0.0,0.0,0.0,1.778153091436252e-08,1.5678173426181274e-08,-8.367061673197895e-05,0.7547636173276974,0,None,None
122.22257780493237,-1.9647597074508667,-49.099998474121094,-194.5,-0.004619598388671875,0.0,0.0,0.0,1.4246119839356197e-08,7.511525623726811e-09,-0.00013749599747825414,0.7547636173276974,0,None,None
122.25029338453896,-1.9647597074508667,-49.099998474121094,-194.5,-0.004616317804902792,0.0,0.0,0.0,-2.0425986235750315e-08,-1.0137708983393168e-07,0.00023616790713276714,0.7547636173276974,0,None,None
122.26295552798547,-1.9647597074508667,-49.099998474121094,-194.5,-0.004611396696418524,0.0,0.0,0.0,1.9066243694965124e-08,1.764963819539389e-08,0.0003732824116013944,0.7547636173276974,0,None,None
122.27884713211097,-1.9647597074508667,-49.099998474121094,-194.5,-0.0046225739642977715,0.0,0.0,0.0,1.8083619934827766e-08,1.7635462867815477e-08,-0.0006693553877994418,0.7547636173276974,0,None,None
122.29136639111675,-1.9647597074508667,-49.099998474121094,-194.5,-0.00461311312392354,0.0,0.0,0.0,1.9429750253152633e-08,1.8519164868280313e-08,0.00023311137920245528,0.7547636173276974,0,None,None
122.30452547245659,-1.9647597074508667,-49.099998474121094,-194.5,-0.00461311312392354,0.0,0.0,0.0,2.504542528924958e-08,2.8693293074866233e-08,-3.2949446904240176e-06,0.7547636173276974,0,None,None
122.31836879369803,-1.9647597074508667,-49.099998474121094,-194.5,-0.004631957970559597,0.0,0.0,0.0,1.9276686913372032e-08,1.9252951233283966e-08,-0.0010452079586684704,0.7547636173276974,0,None,None
122.33541077119298,-1.9647597074508667,-49.099998474121094,-194.5,-0.004638633690774441,0.0,0.0,0.0,2.0105673570469662e-08,2.0553795110345163e-08,-0.0004015397862531245,0.7547636173276974,0,None,None
122.3511766132433,-1.9647597074508667,-49.099998474121094,-194.5,-0.004635391291230917,0.0,0.0,0.0,1.9620454594360126e-08,2.2410944211515016e-08,0.00022182941029313952,0.7547636173276974,0,None,None
122.37744488404132,-1.9647597074508667,-49.099998474121094,-194.5,-0.004635391291230917,0.0,0.0,0.0,4.173607592861117e-08,-9.712022830399292e-08,5.403518662205897e-05,0.7547636173276974,0,None,None
122.39106156420894,-1.9647597074508667,-49.099998474121094,-194.5,-0.004643745254725218,0.0,0.0,0.0,-1.5763953475911308e-09,-7.357539022478932e-10,-0.0002743482473306358,0.7547636173276974,0,None,None
122.40475513157435,-1.9647597074508667,-49.099998474121094,-194.5,-0.0046492768451571465,0.0,0.0,0.0,-2.058277326355551e-09,4.8083803605436515e-09,-0.0003668737190309912,0.7547636173276974,0,None,None
122.43256649863906,-1.9647597074508667,-49.099998474121094,-194.5,-0.004650650080293417,0.0,0.0,0.0,-5.042876782823669e-09,7.985042072000681e-10,-9.088515798794106e-05,0.7547636173276974,0,None,None
122.44604078610428,-1.9647597074508667,-49.099998474121094,-194.5,-0.004650650080293417,0.0,0.0,0.0,-6.420086684499893e-09,2.2803472443655437e-09,-2.0904541088384576e-05,0.7547636173276974,0,None,None
122.46068793931045,-1.9647597074508667,-49.099998474121094,-194.5,-0.004656448028981686,0.0,0.0,0.0,7.798215051479929e-08,5.907398570315081e-09,-0.0003446197370067239,0.7547636173276974,0,None,None
122.47430314053781,-1.9647597074508667,-49.099998474121094,-194.5,-0.004656448028981686,0.0,0.0,0.0,-1.3576577195806294e-08,3.568449091773118e-09,2.8090476916986518e-05,0.7547636173276974,0,None,None
122.48805315350182,-1.9647597074508667,-49.099998474121094,-194.5,-0.004656448028981686,0.0,0.0,0.0,-5.5389516973036734e-08,-1.1434947566613118e-07,-3.5910605220124125e-05,0.7547636173276974,0,None,None
122.51543097221293,-1.9647597074508667,-49.099998474121094,-194.5,-0.004653549287468195,0.0,0.0,0.0,-1.6826561477500945e-08,1.1128913790514616e-08,0.00019631384930107743,0.7547636173276974,0,None,None
122.52872761641629,-1.9647597074508667,-49.099998474121094,-194.5,-0.004650840535759926,0.0,0.0,0.0,-1.6114178436055226e-08,1.7346103220461373e-08,0.00020303248311392963,0.7547636173276974,0,None,None
122.54579396662302,-1.9647597074508667,-49.099998474121094,-194.5,-0.004669189453125,0.0,0.0,0.0,-1.9749540669522503e-08,1.1074535066768476e-08,-0.001011810265481472,0.7547636173276974,0,None,None
122.56043861736543,-1.9647597074508667,-49.099998474121094,-194.5,-0.004669189453125,0.0,0.0,0.0,6.56317524772021e-08,2.0301204273209805e-08,1.9469260223559104e-05,0.7547636173276974,0,None,None
122.57334185973741,-1.9647597074508667,-49.099998474121094,-194.5,-0.004655189346522093,0.0,0.0,0.0,6.385185713497776e-08,2.34886847749749e-08,0.00047365663340315223,0.7547636173276974,0,None,None
122.60000198264606,-1.9647597074508667,-49.099998474121094,-194.5,-0.00465190876275301,0.0,0.0,0.0,-2.4213626659275178e-08,2.4020929245693878e-08,0.00023336410231422633,0.7547636173276974,0,None,None
122.61365163722076,-1.9647597074508667,-49.099998474121094,-194.5,-0.004648856818675995,0.0,0.0,0.0,-1.8058184281244394e-08,3.984263230449869e-08,0.00021788597223348916,0.7547636173276974,0,None,None
122.62812804454006,-1.9647597074508667,-49.099998474121094,-194.5,-0.004648856818675995,0.0,0.0,0.0,-2.8054040868141783e-08,2.6528510943535366e-08,-4.9362181016476825e-05,0.7547636173276974,0,None,None
122.64238763530739,-1.9647597074508667,-49.099998474121094,-194.5,-0.004648856818675995,0.0,0.0,0.0,-3.2433693064604086e-08,2.2480282524384165e-08,4.389285822981037e-05,0.7547636173276974,0,None,None
122.65663546253927,-1.9647597074508667,-49.099998474121094,-194.5,-0.0046449280343949795,0.0,0.0,0.0,-3.499018674801846e-08,2.3151903505436167e-08,0.0002393293398199603,0.7547636173276974,0,None,None
122.6703034278471,-1.9647597074508667,-49.099998474121094,-194.5,-0.00466651888564229,0.0,0.0,0.0,-3.383155089409229e-08,2.5921609747570074e-08,-0.0011408996069803834,0.7547636173276974,0,None,None
122.68807812710293,-1.9647597074508667,-49.099998474121094,-194.5,-0.004658393561840057,0.0,0.0,0.0,-3.7738480784810235e-08,2.249166719536788e-08,0.0005946397432126105,0.7547636173276974,0,None,None
122.71432616305538,-1.9647597074508667,-49.099998474121094,-194.5,-0.004650230519473553,0.0,0.0,0.0,-3.831747363847171e-08,2.4760742789453616e-08,0.0006076002027839422,0.7547636173276974,0,None,None
122.72766471770592,-1.9647597074508667,-49.099998474121094,-194.5,-0.004644317552447319,0.0,0.0,0.0,6.481140957248499e-09,-9.660477218176311e-08,0.00042700290214270353,0.7547636173276974,0,None,None
122.7408145063091,-1.9647597074508667,-49.099998474121094,-194.5,-0.0046343994326889515,0.0,0.0,0.0,4.854074475701964e-08,2.917498242993588e-08,0.00029488562722690403,0.7547636173276974,0,None,None
122.76755340979435,-1.9647597074508667,-49.099998474121094,-194.5,-0.00463039381429553,0.0,0.0,0.0,4.827039035149028e-08,2.7909399236136778e-08,0.00029078006627969444,0.7547636173276974,0,None,None
122.78153309342451,-1.9647597074508667,-49.099998474121094,-194.5,-0.00463039381429553,0.0,0.0,0.0,0.0,0.0,0.0,0.7547636173276974,0,None,None
122.79423827887513,-1.9647597074508667,-49.099998474121094,-194.5,-0.004624976776540279,0.0,0.0,0.0,8.795291162044805e-10,2.395774412189411e-10,0.00038064003456383944,0.7547636173276974,0,None,None
122.80781397898681,-1.9647597074508667,-49.099998474121094,-194.5,-0.004622688051313162,0.0,0.0,0.0,-3.897959643950344e-08,-9.480439189246681e-08,8.420467202086002e-05,0.7547636173276974,0,None,None
122.8213580895681,-1.9647597074508667,-49.099998474121094,-194.5,-0.004621658008545637,0.0,0.0,0.0,-3.9152695308075636e-08,-1.2325220666298264e-07,7.22742042853497e-05,0.7547636173276974,0,None,None
122.84878510632552,-1.9647597074508667,-49.099998474121094,-194.5,-0.004621658008545637,0.0,0.0,0.0,4.133660080896107e-09,1.3041312474371125e-09,-2.8414726330083795e-05,0.7547636173276974,0,None,None
122.862234209897,-1.9647597074508667,-49.099998474121094,-194.5,-0.0046206284314394,0.0,0.0,0.0,3.56066887086115e-09,1.4327227182420188e-09,0.00010454654693603516,0.7547636173276974,0,None,None
122.87528010481037,-1.9647597074508667,-49.099998474121094,-194.5,-0.004619102459400892,0.0,0.0,0.0,-8.183000232975246e-08,2.3443376129250737e-09,-8.952140342444181e-05,0.7547636173276974,0,None,None
122.88925072480924,-1.9647597074508667,-49.099998474121094,-194.5,-0.004614486359059811,0.0,0.0,0.0,-3.822039218448481e-08,-9.350051044521024e-08,0.0003542423073668033,0.7547636173276974,0,None,None
122.91547796619125,-1.9647597074508667,-49.099998474121094,-194.5,-0.004614486359059811,0.0,0.0,0.0,5.991223517298749e-09,5.509994682739716e-09,-5.3048133850097656e-05,0.7547636173276974,0,None,None
122.92806087923236,-1.9647597074508667,-49.099998474121094,-194.5,-0.004611549433320761,0.0,0.0,0.0,6.864810053741621e-09,5.049937801260285e-09,0.0002873992780223489,0.7547636173276974,0,None,None
122.94188228645362,-1.9647597074508667,-49.099998474121094,-194.5,-0.004613074939697981,0.0,0.0,0.0,8.2441955484569e-09,6.340763913925684e-09,-0.00010753631067927927,0.7547636173276974,0,None,None
122.96087672398426,-1.9647597074508667,-49.099998474121094,-194.5,-0.004650382790714502,0.0,0.0,0.0,9.746849549685521e-09,8.55175308345224e-09,-0.0018482684390619397,0.7547636173276974,0,None,None
122.97369418875314,-1.9647597074508667,-49.099998474121094,-194.5,-0.004643134772777557,0.0,0.0,0.0,1.2647005220856045e-08,1.1081510820076801e-08,-6.483077595476061e-05,0.7547636173276974,0,None,None
122.98853916698135,-1.9647597074508667,-49.099998474121094,-194.5,-0.0046367645263671875,0.0,0.0,0.0,-2.987316705116427e-08,-8.660273920213513e-08,0.00046641347580589354,0.7547636173276974,0,None,None
123.00171163980849,-1.9647597074508667,-49.099998474121094,-194.5,-0.004655189346522093,0.0,0.0,0.0,-7.222750042501502e-08,1.3313012914295541e-08,-0.0009942245669662952,0.7547636173276974,0,None,None
123.03342191153206,-1.9647597074508667,-49.099998474121094,-194.5,-0.004650688264518976,0.0,0.0,0.0,1.4741375231608345e-08,1.439343400022608e-08,0.0003050422528758645,0.7547636173276974,0,None,None
123.050395850325,-1.9647597074508667,-49.099998474121094,-194.5,-0.004662208259105682,0.0,0.0,0.0,1.612675681883502e-08,1.4949049997881048e-08,-0.0006379890255630016,0.7547636173276974,0,None,None
123.06458983873017,-1.9647597074508667,-49.099998474121094,-194.5,-0.00465595256537199,0.0,0.0,0.0,-2.5542080450691174e-08,-8.44321021986616e-08,0.0004258918634150177,0.7547636173276974,0,None,None
123.07956601516344,-1.9647597074508667,-49.099998474121094,-194.5,-0.004654045216739178,0.0,0.0,0.0,1.9403259443606657e-08,1.5910382344941354e-08,0.00012535095447674394,0.7547636173276974,0,None,None
123.09273742814548,-1.9647597074508667,-49.099998474121094,-194.5,-0.004636840894818306,0.0,0.0,0.0,2.0285575885736762e-08,1.485630729547438e-08,0.0005908822640776634,0.7547636173276974,0,None,None
123.10586802684702,-1.9647597074508667,-49.099998474121094,-194.5,-0.004632186610251665,0.0,0.0,0.0,2.0177303383661638e-08,1.3197187342939287e-08,0.00032599447877146304,0.7547636173276974,0,None,None
123.13231015135534,-1.9647597074508667,-49.099998474121094,-194.5,-0.004624443128705025,0.0,0.0,0.0,-1.619851808243311e-08,-1.004488012767979e-07,0.0005869435844942927,0.7547636173276974,0,None,None
123.14559469581582,-1.9647597074508667,-49.099998474121094,-194.5,-0.004619827028363943,0.0,0.0,0.0,2.4831050993157078e-08,2.025018552842539e-08,0.00033360003726556897,0.7547636173276974,0,None,None
123.15879644756205,-1.9647597074508667,-49.099998474121094,-194.5,-0.004611854441463947,0.0,0.0,0.0,-5.767772393028281e-08,2.5133758185802435e-08,0.0002717733441386372,0.7547636173276974,0,None,None
123.17195541248657,-1.9647597074508667,-49.099998474121094,-194.5,-0.0046105957590043545,0.0,0.0,0.0,2.3366574453120847e-08,1.8988099981243067e-08,8.738040924072266e-05,0.7547636173276974,0,None,None
123.19862442300655,-1.9647597074508667,-49.099998474121094,-194.5,-0.0046105957590043545,0.0,0.0,0.0,8.043483101793925e-10,5.323761431696994e-10,1.8405913579044864e-05,0.7547636173276974,0,None,None
123.21585208945908,-1.9647597074508667,-49.099998474121094,-194.5,-0.004634513519704342,0.0,0.0,0.0,2.5119832880449167e-09,1.7392497442259014e-09,-0.0013179588131606579,0.7547636173276974,0,None,None
123.229381659301,-1.9647597074508667,-49.099998474121094,-194.5,-0.004632492084056139,0.0,0.0,0.0,3.947813631555164e-09,2.8031321708255064e-09,0.00014702319458592683,0.7547636173276974,0,None,None
123.24212784902193,-1.9647597074508667,-49.099998474121094,-194.5,-0.004627761896699667,0.0,0.0,0.0,4.691716348759201e-09,4.197845626663366e-09,0.0003581905330065638,0.7547636173276974,0,None,None
123.25962168374099,-1.9647597074508667,-49.099998474121094,-194.5,-0.004650077782571316,0.0,0.0,0.0,5.6528159930735455e-09,5.543208114744402e-09,-0.0012026786571368575,0.7547636173276974,0,None,None
123.27407716889866,-1.9647597074508667,-49.099998474121094,-194.5,-0.004641341976821423,0.0,0.0,0.0,-7.744173302626223e-08,5.7633546823865345e-09,0.0005902195116505027,0.7547636173276974,0,None,None
123.3006098123733,-1.9647597074508667,-49.099998474121094,-194.5,-0.0046385955065488815,0.0,0.0,0.0,7.885955888298213e-09,6.9738046448719615e-09,0.00019438266463112086,0.7547636173276974,0,None,None
123.31626788922586,-1.9647597074508667,-49.099998474121094,-194.5,-0.0046453094109892845,0.0,0.0,0.0,8.439378973434941e-09,6.128908491831453e-09,-0.0004033470177091658,0.7547636173276974,0,None,None
123.33003127225675,-1.9647597074508667,-49.099998474121094,-194.5,-0.004641341976821423,0.0,0.0,0.0,9.588646321390115e-09,7.03808078483803e-09,0.00027862549177370965,0.7547636173276974,0,None,None
123.34361226134934,-1.9647597074508667,-49.099998474121094,-194.5,-0.004637107718735933,0.0,0.0,0.0,-3.235400924950227e-08,-9.191569461108884e-08,0.0003007554914802313,0.7547636173276974,0,None,None
123.35823411610909,-1.9647597074508667,-49.099998474121094,-194.5,-0.004635619930922985,0.0,0.0,0.0,-7.320029027368946e-08,7.837163806811986e-09,0.00016155242337845266,0.7547636173276974,0,None,None
123.37221710127778,-1.9647597074508667,-49.099998474121094,-194.5,-0.0046325684525072575,0.0,0.0,0.0,1.801560323144713e-08,1.883778111277934e-08,0.0002140235883416608,0.7547636173276974,0,None,None
123.39978281618096,-1.9647597074508667,-49.099998474121094,-194.5,-0.0046302033588290215,0.0,0.0,0.0,1.4158747951853456e-08,1.0216668400175877e-08,0.00016649722238071263,0.7547636173276974,0,None,None
123.41687713027932,-1.9647597074508667,-49.099998474121094,-194.5,-0.004646911285817623,0.0,0.0,0.0,1.4651182489444636e-08,1.2165912721684435e-08,-0.0009235095931217074,0.7547636173276974,0,None,None
123.43107579019852,-1.9647597074508667,-49.099998474121094,-194.5,-0.004643592517822981,0.0,0.0,0.0,-2.707522028799758e-08,-1.1218450168826166e-07,0.00022617816284764558,0.7547636173276974,0,None,None
