time,Steering Angle,X Position,Y Position,Z Position, Pitch, Roll, Yaw, X velocity, Y velocity, Z velocity, Lateral Position,Lap Count, Lane Invasion, Collision Sensor
23.52169108716771,-0.00034613345633260906,-2.710819721221924,-194.0729522705078,-0.0053835297003388405,0.22120249271392822,-0.01312255859375,1.487062692642212,18.26220703125,0.4724910259246826,9.333610069006681e-05,0.0017553639573694032,0,None,None
23.52169108716771,-0.00034613345633260906,-2.2271432876586914,-194.06044006347656,-0.00532951345667243,0.20711864531040192,-0.011718750931322575,1.485122799873352,18.28011131286621,0.47266605496406555,8.651733514852822e-05,0.0014042701501775924,0,None,None
23.567486543674022,-0.00035279366420581937,-1.6272608041763306,-194.044921875,-0.005273093935102224,0.19244056940078735,-0.00994872860610485,1.4823294878005981,18.312358856201172,0.47302281856536865,7.881641067797318e-05,0.0009616296185929118,0,None,None
23.59221767866984,-0.0003751428739633411,-0.9340260624885559,-194.0270233154297,-0.005226173438131809,0.18048091232776642,-0.007904052734375,1.4786524772644043,18.354963302612305,0.47338131070137024,6.759166717529297e-05,0.00047319763731528373,0,None,None
23.63486616825685,-0.0003778189711738378,-0.39061424136161804,-194.0130157470703,-0.005199851933866739,0.17378050088882446,-0.006286620628088713,1.4754887819290161,18.392093658447266,0.47365543246269226,5.57088824280072e-05,0.0001221346477536728,0,None,None
23.66167986067012,-0.0003784512518905103,0.34699440002441406,-193.99407958984375,-0.005178641993552446,0.16857588291168213,-0.004241943825036287,1.4709147214889526,18.446672439575195,0.4740027189254761,4.4937132770428434e-05,0.00027470275424244843,0,None,None
23.692020195070654,-0.0003714865888468921,0.662975013256073,-193.98594665527344,-0.005169562995433807,0.1663014441728592,-0.0033569338265806437,1.4688832759857178,18.46303939819336,0.4739416837692261,4.14562200603541e-05,0.0004731495844082273,0,None,None
23.70574027718976,-0.0003693065664265305,1.1671488285064697,-193.9730682373047,-0.005159301683306694,0.16376060247421265,-0.0020446775015443563,1.4655877351760864,18.500106811523438,0.4740746319293976,3.7178993807174265e-05,0.0006715795700742215,0,None,None
23.719294560607523,-0.0003545027575455606,1.4536378383636475,-193.96571350097656,-0.005155105609446764,0.16283169388771057,-0.0013427734375,1.4636980295181274,18.520816802978516,0.47413569688796997,3.479003862594254e-05,0.0008242267263911132,0,None,None
23.747258965391666,-0.00035061882226727903,1.685111165046692,-193.95977783203125,-0.005151939112693071,0.16204622387886047,-0.0007934571476653218,1.4621707201004028,18.535207748413086,0.4741135537624359,2.9377935788943432e-05,0.0009463217545600947,0,None,None
23.76051049726084,-0.00034473915002308786,1.930911660194397,-193.9534912109375,-0.005149459931999445,0.16145199537277222,-0.0002136228868039325,1.4605505466461182,18.554006576538086,0.47417426109313965,2.95114514301531e-05,0.0010531830324327718,0,None,None
23.773005821276456,-0.00033881558920256793,2.162911891937256,-193.9475555419922,-0.005147704854607582,0.1610831767320633,0.00030695105670019984,1.4590264558792114,18.57135581970215,0.474216103553772,2.6745796276372857e-05,0.0011599698985355331,0,None,None
23.788129201624542,-0.00033282936783507466,2.6831817626953125,-193.9342803955078,-0.005144882015883923,0.16052310168743134,0.0014428050490096211,1.4556331634521484,18.609817504882812,0.47427818179130554,2.214431697211694e-05,0.0013584967828907178,0,None,None
23.813680873718113,-0.00032478864886797965,2.9196197986602783,-193.92825317382812,-0.005145111121237278,0.16062554717063904,0.0019249760080128908,1.4541065692901611,18.62940788269043,0.47435319423675537,2.3055075871525332e-05,0.0014499914703575575,0,None,None
23.82789571536705,-0.00030772178433835506,3.1846721172332764,-193.92149353027344,-0.005146141164004803,0.1610080450773239,0.0024536941200494766,1.4524128437042236,18.65102195739746,0.4744378924369812,1.6469955880893394e-05,0.0015416216120039661,0,None,None
23.83985592564568,-0.00030772178433835506,3.407870292663574,-193.91583251953125,-0.005146712996065617,0.16117195785045624,0.0028684271965175867,1.451002597808838,18.66478157043457,0.4743863642215729,1.4867781828797888e-05,0.0016026326105955176,0,None,None
23.854536797385663,-0.0002876481448765844,3.911738872528076,-193.90306091308594,-0.00514423381537199,0.16061188280582428,0.003762440523132682,1.447892427444458,18.69601821899414,0.47429242730140686,1.3499259694071952e-05,0.0017094878137452663,0,None,None
23.87964640976861,-0.0002647078945301473,4.151600360870361,-193.89697265625,-0.005143508780747652,0.16048894822597504,0.004150900989770889,1.4464528560638428,18.713993072509766,0.4743381440639496,1.4295577784650959e-05,0.001770574961961616,0,None,None
23.89378766110167,-0.00025501634809188545,4.4164581298828125,-193.89022827148438,-0.005143394228070974,0.1605367511510849,0.00456086965277791,1.4449011087417603,18.73459243774414,0.4744105339050293,1.1901855032192543e-05,0.0018621118048979797,0,None,None
23.90612228354439,-0.00023729080567136407,4.890932083129883,-193.87823486328125,-0.005143241956830025,0.1605367511510849,0.0052187200635671616,1.4422205686569214,18.76582145690918,0.4744006097316742,1.1563301086425781e-05,0.0019232225285619306,0,None,None
23.919086530338973,-0.00022346130572259426,5.1504130363464355,-193.87167358398438,-0.0051421355456113815,0.16031135618686676,0.005549954250454903,1.4408137798309326,18.782793045043945,0.4744044840335846,9.3364715212374e-06,0.0019689964317811297,0,None,None
23.945514696184546,-0.00022346130572259426,5.387410640716553,-193.86569213867188,-0.005141143687069416,0.16007913649082184,0.005829882342368364,1.4395637512207031,18.79839515686035,0.4744058847427368,8.311271812999621e-06,0.001999528312006564,0,None,None
23.96065887575969,-0.00021264632232487202,5.672317981719971,-193.85850524902344,-0.005140228196978569,0.15980592370033264,0.0061539290472865105,1.4381073713302612,18.81825828552246,0.47444528341293335,6.756782568118069e-06,0.0020148062775947402,0,None,None
23.974801385309547,-0.00020152944489382207,5.9386725425720215,-193.85179138183594,-0.005139885004609823,0.15975812077522278,0.006425541825592518,1.4367893934249878,18.838979721069336,0.4745456576347351,9.078979019250255e-06,0.0020452906473703548,0,None,None
23.986774757038802,-0.0001613333006389439,6.44174861907959,-193.83914184570312,-0.005142250098288059,0.16044113039970398,0.006855791434645653,1.4344482421875,18.880809783935547,0.4748636484146118,7.3814389907056466e-06,0.0020452790301380584,0,None,None
24.014098324347287,-0.0001613333006389439,6.680416584014893,-193.83311462402344,-0.005144729278981686,0.16113781929016113,0.007026649080216885,1.433404564857483,18.901525497436523,0.4750377833843231,6.29425039733178e-06,0.00207582243610385,0,None,None
24.02694624150172,-0.00013987623970024288,6.9234490394592285,-193.82701110839844,-0.005147323478013277,0.1618686467409134,0.007181268185377121,1.4323886632919312,18.919723510742188,0.4751618206501007,6.01291640123236e-06,0.00207582243610385,0,None,None
24.04004447394982,-0.00012981217878405005,7.404796600341797,-193.81494140625,-0.005145072937011719,0.16132906079292297,0.007439606357365847,1.430505394935608,18.935733795166016,0.47490909695625305,2.5653839657024946e-06,0.0020452790301380584,0,None,None
24.052372364792973,-0.00010542930249357596,7.657862186431885,-193.80860900878906,-0.005139121785759926,0.15971030294895172,0.00754595547914505,1.4295885562896729,18.942121505737305,0.4747561514377594,2.5224685487046372e-06,0.002014782352959442,0,None,None
24.078923548106104,-9.279650839744136e-05,7.907709121704102,-193.80235290527344,-0.00513038644567132,0.15735389292240143,0.007628697901964188,1.4287363290786743,18.945499420166016,0.47454389929771423,3.7860870634176536e-06,0.001999516428894159,0,None,None
24.091575720813125,-9.279650839744136e-05,8.147392272949219,-193.7963409423828,-0.005119209177792072,0.15434177219867706,0.007691965904086828,1.427964687347412,18.9464111328125,0.4742822051048279,3.5810469398711575e-06,0.0019842156169390538,0,None,None
24.104986284393817,-7.200865366030484e-05,8.652491569519043,-193.78369140625,-0.005087928846478462,0.14583136141300201,0.007776923011988401,1.4264792203903198,18.945287704467773,0.47369253635406494,9.574890100338962e-06,0.0019384527820526596,0,None,None
24.11824023211375,-5.251191396382637e-05,8.904596328735352,-193.77740478515625,-0.005069579929113388,0.14089997112751007,0.007789711933583021,1.4258140325546265,18.945079803466797,0.4734366536140442,8.707046617928427e-06,0.0018927396150806093,0,None,None
24.143740789499134,-3.917205685866065e-05,9.135518074035645,-193.77162170410156,-0.005052528344094753,0.1362827569246292,0.0077837081626057625,1.4252502918243408,18.94605255126953,0.4732457995414734,9.222030712408014e-06,0.0018773892200692637,0,None,None
24.15716698905453,-3.248723805882037e-05,9.389870643615723,-193.76524353027344,-0.005033759865909815,0.13121475279331207,0.007758065592497587,1.4246830940246582,18.94903564453125,0.4730924963951111,8.025169336178806e-06,0.0018621350047558528,0,None,None
24.16986926132813,-2.4384045900660567e-05,9.90091323852539,-193.75245666503906,-0.0050004576332867146,0.12229453027248383,0.007663259282708168,1.4236886501312256,18.963823318481445,0.47302523255348206,1.049041748046875e-05,0.001801118918347527,0,None,None
24.196536012459546,-1.602604243089445e-05,10.136274337768555,-193.74659729003906,-0.004989051725715399,0.11921411752700806,0.0076024336740374565,1.423294186592102,18.975677490234375,0.47313880920410156,1.17444988063653e-05,0.0017553577236891946,0,None,None
24.213184411171824,1.3161537708583637e-06,10.452399253845215,-193.73870849609375,-0.004977874457836151,0.11629762500524521,0.00749138044193387,1.4228357076644897,18.994611740112305,0.4733944833278656,1.2626647730940022e-05,0.0016942453016614684,0,None,None
24.225906416308135,1.1653795809252188e-05,10.6941499710083,-193.73269653320312,-0.0049720765091478825,0.11470618844032288,0.0073960707522928715,1.4225342273712158,19.006488800048828,0.4735400378704071,1.1706351870088838e-05,0.0016331816763137776,0,None,None
24.238304283935577,2.194162516389042e-05,11.185821533203125,-193.720458984375,-0.00496395118534565,0.11263664066791534,0.0071610137820243835,1.4220566749572754,19.034311294555664,0.47396087646484375,8.959769729699474e-06,0.0015110779198615049,0,None,None
24.263710072729737,3.903975084540434e-05,11.413522720336914,-193.7147979736328,-0.004963722079992294,0.11252736300230026,0.007037333212792873,1.4218947887420654,19.049922943115234,0.47424638271331787,6.542205483128782e-06,0.0014500620332998067,0,None,None
24.27714633056894,4.6597564505646005e-05,11.669633865356445,-193.70843505859375,-0.004964141640812159,0.11269128322601318,0.006880880333483219,1.421761155128479,19.065099716186523,0.4745202958583832,9.598731594451237e-06,0.0013737690941150568,0,None,None
24.289292762521654,5.365267497836612e-05,12.143011093139648,-193.69664001464844,-0.004966392181813717,0.11334015429019928,0.006568515673279762,1.4216331243515015,19.088109970092773,0.4749287962913513,7.452964837284526e-06,0.0012821483523746202,0,None,None
24.301954666618258,6.571250560227782e-05,12.413243293762207,-193.68991088867188,-0.004964943043887615,0.11297815293073654,0.006370586808770895,1.421627163887024,19.09398651123047,0.47500354051589966,7.309913598874118e-06,0.0012211087417240926,0,None,None
24.328629604075104,6.571250560227782e-05,12.65239143371582,-193.6839599609375,-0.004963035695254803,0.11247272044420242,0.0061940355226397514,1.4216572046279907,19.102901458740234,0.475168377161026,6.847381428087829e-06,0.001160044750064908,0,None,None
24.346122028771788,7.262385042849928e-05,12.986682891845703,-193.67564392089844,-0.0049591828137636185,0.11147551238536835,0.005920277442783117,1.4217597246170044,19.113868713378906,0.4753798246383667,7.0762630457466e-06,0.0010684732279978531,0,None,None
24.360297942068428,7.77311870479025e-05,13.257722854614258,-193.66888427734375,-0.004955596756190062,0.11051928251981735,0.005703820381313562,1.4218846559524536,19.1226749420166,0.47556421160697937,6.628036317124497e-06,0.001022712884638896,0,None,None
24.374617889989167,8.342941146111116e-05,13.531651496887207,-193.66207885742188,-0.004951743874698877,0.10948792845010757,0.005477031227201223,1.4220507144927979,19.132217407226562,0.4757811725139618,5.879402124264743e-06,0.0009463952746305675,0,None,None
24.387028565164655,0.00010109569120686501,14.004755973815918,-193.65032958984375,-0.004943428095430136,0.10731592774391174,0.005072646774351597,1.4224295616149902,19.143909454345703,0.4760826826095581,2.560615484981099e-06,0.0008088979875776019,0,None,None
24.412430770229548,0.00010326044139219448,14.255476951599121,-193.64407348632812,-0.004938201978802681,0.10591574013233185,0.0048444089479744434,1.4226793050765991,19.15060806274414,0.4762684404850006,4.358291334938258e-06,0.0007632278850843516,0,None,None
24.425159057136625,0.00010326044139219448,14.499282836914062,-193.6380157470703,-0.004932975862175226,0.10451555252075195,0.004620524123311043,1.4229482412338257,19.15746307373047,0.47646352648735046,4.372596777102444e-06,0.0006868368782818074,0,None,None
24.438281677197665,0.0001132924880948849,15.00464916229248,-193.6254425048828,-0.004923286382108927,0.10189958661794662,0.00414492329582572,1.4235879182815552,19.17442512512207,0.4769677519798279,4.153251666139113e-06,0.0005647813575232467,0,None,None
24.463751503732055,0.0001146724316640757,15.23912525177002,-193.61962890625,-0.004918784834444523,0.10074528306722641,0.003923585172742605,1.4239206314086914,19.18144416809082,0.47719457745552063,5.283355676510837e-06,0.000488463755117112,0,None,None
24.47671083593741,0.00011644446931313723,15.487801551818848,-193.6134490966797,-0.004915389697998762,0.09982320666313171,0.003684012684971094,1.424296498298645,19.192441940307617,0.47753116488456726,3.376007043698337e-06,0.00041209766887698873,0,None,None
24.48912180075422,0.00011644446931313723,15.726104736328125,-193.60751342773438,-0.004913444630801678,0.0992836207151413,0.00345650315284729,1.4246770143508911,19.204612731933594,0.4778999984264374,3.395080511836568e-06,0.00036627177885419424,0,None,None
24.503938496578485,0.00012149672693340108,16.27333641052246,-193.5939178466797,-0.004914817865937948,0.0996934324502945,0.0029210387729108334,1.4256234169006348,19.237689971923828,0.4789053499698639,2.8371810003591236e-06,0.0001985109227181654,0,None,None
24.53077014302835,0.00012578570749610662,16.52711296081543,-193.5876007080078,-0.004917182959616184,0.10039694607257843,0.0026771484408527613,1.426092505455017,19.251277923583984,0.47934290766716003,5.0163266678282525e-06,0.00013744825915677238,0,None,None
24.543416742701083,0.00012699062062893063,16.770666122436523,-193.58154296875,-0.004919166676700115,0.10090237855911255,0.002444678219035268,1.4265600442886353,19.260560989379883,0.47967618703842163,2.0313261757110013e-06,7.631778344628355e-05,0,None,None
24.557306844275445,0.00012779206736013293,17.038291931152344,-193.57485961914062,-0.004920158069580793,0.10118924826383591,0.00218484946526587,1.4270905256271362,19.26854133605957,0.47999390959739685,1.2779235021298518e-06,4.5816086385590795e-05,0,None,None
24.570094771217555,0.00012640320346690714,17.53638458251953,-193.56243896484375,-0.00491268141195178,0.09918799996376038,0.0017141038551926613,1.4281147718429565,19.266239166259766,0.4801742434501648,8.106231774718253e-08,6.103515625e-05,0,None,None
24.596036191564053,0.00012513049296103418,17.784420013427734,-193.55625915527344,-0.004904251080006361,0.09687940031290054,0.001483708037994802,1.4286381006240845,19.261445999145508,0.4801790118217468,2.5177000679832418e-06,0.00010682855197861058,0,None,None
24.60847419174388,0.0001256544201169163,18.023900985717773,-193.55029296875,-0.004892959259450436,0.0938263013958931,0.0012658237246796489,1.4291504621505737,19.25442886352539,0.4801292419433594,4.787445050169481e-06,0.00016785751654580536,0,None,None
24.621135228779167,0.0001232404465554282,18.507972717285156,-193.53817749023438,-0.004861869849264622,0.08547298610210419,0.0008343526278622448,1.430201768875122,19.23688316345215,0.4799555838108063,3.991126959590474e-06,0.00021369966767737913,0,None,None
24.647327716927975,0.00012152908311691135,18.771259307861328,-193.5316162109375,-0.004841728135943413,0.08000883460044861,0.0006032761884853244,1.4307810068130493,19.22730827331543,0.47986456751823425,5.078315552964341e-06,0.0002595115867873375,0,None,None
24.647327716927975,0.00011661741882562637,19.11383819580078,-193.52305603027344,-0.0048131560906767845,0.07229071855545044,0.00029982964042574167,1.431535243988037,19.216754913330078,0.479793906211853,7.84873918746598e-06,0.00032057645472107556,0,None,None
24.679963354486972,0.00011661741882562637,19.39825439453125,-193.5159454345703,-0.004790496546775103,0.06623917073011398,7.001703488640487e-05,1.4321620464324951,19.210906982421875,0.47981584072113037,4.944801275996724e-06,0.0003510816998407555,0,None,None
24.692518756259233,0.00011391995212761685,19.639387130737305,-193.5099334716797,-0.0047732163220644,0.06155366078019142,-0.00012207026884425431,1.4326934814453125,19.208566665649414,0.4799024760723114,6.308555384748615e-06,0.0003968018684065504,0,None,None
24.70503078540787,0.00010653067874955013,20.12869644165039,-193.49771118164062,-0.004744376987218857,0.05384237691760063,-0.0004882813082076609,1.433765172958374,19.213045120239258,0.48030880093574524,5.588531166722532e-06,0.00047316087728004736,0,None,None
24.730491656344384,0.00010653067874955013,20.36886215209961,-193.49169921875,-0.00473506934940815,0.05132203921675682,-0.0006408690242096782,1.4342875480651855,19.22072410583496,0.4806480407714844,8.273124876723159e-06,0.000503670068771333,0,None,None
24.74359079496935,0.00010696199024096131,20.62074089050293,-193.48541259765625,-0.0047292327508330345,0.04979890584945679,-0.000823974609375,1.4348328113555908,19.233108520507812,0.4811151921749115,9.574890100338962e-06,0.0005341802183842506,0,None,None
24.759627607185394,0.00010048857802757993,20.929426193237305,-193.47767639160156,-0.004729194566607475,0.049792077392339706,-0.0010375975398346782,1.4354954957962036,19.25420570373535,0.481830894947052,9.994506399380043e-06,0.0005495282930105318,0,None,None
24.77392022171989,0.00010003413626691326,21.204877853393555,-193.4707794189453,-0.004734954796731472,0.05141765996813774,-0.001190185546875,1.4360824823379517,19.2766056060791,0.48256248235702515,7.52925870983745e-06,0.0005800347231673649,0,None,None
24.786471751052886,8.884769340511411e-05,21.697277069091797,-193.45846557617188,-0.004752998240292072,0.05632173642516136,-0.0014953612117096782,1.4371092319488525,19.308202743530273,0.48364973068237305,7.085800007189391e-06,0.0006410990030321374,0,None,None
24.811950851697475,8.605128095950931e-05,21.939062118530273,-193.45242309570312,-0.004762077238410711,0.05875328555703163,-0.001617431640625,1.4375996589660645,19.316797256469727,0.4840107858181,4.76837158203125e-06,0.0006715600916951107,0,None,None
24.82566282292828,8.605128095950931e-05,22.203981399536133,-193.44577026367188,-0.004769057966768742,0.060693059116601944,-0.001739501953125,1.4381251335144043,19.318994522094727,0.4842281937599182,6.5040585468523204e-06,0.0006715600916951107,0,None,None
24.838133435230702,7.483312219846994e-05,22.695575714111328,-193.4334259033203,-0.00477180490270257,0.06148536130785942,-0.0019836428109556437,1.4390654563903809,19.31658935546875,0.48446089029312134,2.57968895311933e-06,0.0006868600510165521,0,None,None
24.851112218108028,7.005385123193264e-05,22.95846176147461,-193.4268341064453,-0.004771880805492401,0.06148536130785942,-0.002105712890625,1.4395464658737183,19.32337760925293,0.484780490398407,4.339217866800027e-06,0.0007021141775060254,0,None,None
24.877250139135867,6.615265010623261e-05,23.200729370117188,-193.4207305908203,-0.0047732163220644,0.0619020015001297,-0.0021972653921693563,1.4399760961532593,19.334692001342773,0.48519957065582275,1.5020369801277411e-06,0.0006868600510165521,0,None,None
24.89002812700346,6.615265010623261e-05,23.447912216186523,-193.41452026367188,-0.0047764587216079235,0.06276260316371918,-0.0022888181265443563,1.4404020309448242,19.34695053100586,0.48564645648002625,3.180503881594632e-06,0.0006868150289872375,0,None,None
24.903762366157025,5.630013401969336e-05,24.008195877075195,-193.40048217773438,-0.004788055084645748,0.06593864411115646,-0.0024719235952943563,1.4413172006607056,19.3732852935791,0.48660799860954285,3.0994415283203125e-06,0.0007326701855945994,0,None,None
24.91896031657234,5.0700033170869574e-05,24.268075942993164,-193.3939666748047,-0.00479202251881361,0.06705879420042038,-0.002532958984375,1.4417152404785156,19.377174377441406,0.4868392050266266,3.089904794251197e-06,0.0007479239087592067,0,None,None
24.944957816507667,4.749379513668828e-05,24.511947631835938,-193.38783264160156,-0.0047931671142578125,0.06734566390514374,-0.002593994140625,1.4420725107192993,19.376483917236328,0.4869448244571686,4.5299529460862686e-07,0.0007326230130578005,0,None,None
24.95730719389394,4.749379513668828e-05,24.751264572143555,-193.38180541992188,-0.0047930143773555756,0.06728418916463852,-0.0026550288312137127,1.4424090385437012,19.38014793395996,0.4871574640274048,8.440017609245842e-07,0.0007174166778881762,0,None,None
24.970509578008205,3.81841127818916e-05,25.272296905517578,-193.36868286132812,-0.004790992476046085,0.06676509231328964,-0.00274658203125,1.4430874586105347,19.38963508605957,0.4876384139060974,-8.344650268554688e-07,0.0007021141775060254,0,None,None
24.996287145186216,3.417408879613504e-05,25.507015228271484,-193.36279296875,-0.0047898865304887295,0.06644407659769058,-0.002777099609375,1.4433706998825073,19.39461326599121,0.48786860704421997,1.2779235021298518e-06,0.0007021141775060254,0,None,None
25.00897622620687,2.6046609491459094e-05,25.753173828125,-193.35658264160156,-0.004788932856172323,0.06617769598960876,-0.0028076171875,1.4436508417129517,19.400936126708984,0.4881293475627899,1.7213820910910727e-06,0.0006868600510165521,0,None,None
25.022105731535703,2.1325264242477715e-05,26.249652862548828,-193.3440704345703,-0.004787979181855917,0.06595230102539062,-0.0028381345327943563,1.4441615343093872,19.415082931518555,0.48868003487586975,-4.2915343101412873e-07,0.0006410990030321374,0,None,None
25.03455540491268,1.7976793969864957e-05,26.51276969909668,-193.33743286132812,-0.004788703750818968,0.06613671779632568,-0.002838134765625,1.4444057941436768,19.424589157104492,0.48901763558387756,7.390975724774762e-07,0.0006257964066897545,0,None,None
25.060811592731625,1.1606050975387916e-05,26.759742736816406,-193.3312225341797,-0.004790534731000662,0.06662166118621826,-0.0028381342999637127,1.4446183443069458,19.435253143310547,0.4893709123134613,2.0074844542250503e-06,0.0006105929135926536,0,None,None
25.075642148498446,4.513714429776883e-06,27.048126220703125,-193.32395935058594,-0.0047940826043486595,0.0675642266869545,-0.0028381345327943563,1.4448413848876953,19.447418212890625,0.48976728320121765,2.3794173102942295e-06,0.0005952425303681544,0,None,None
25.08736758446321,-1.634123464100412e-06,27.549108505249023,-193.31134033203125,-0.004797591827809811,0.0685546025633812,-0.0028076171875,1.4451688528060913,19.457494735717773,0.4901648461818695,-1.573562542489526e-07,0.0005647813575232467,0,None,None
25.11417512362823,-1.634123464100412e-06,27.79787826538086,-193.3050994873047,-0.004798736423254013,0.06885513663291931,-0.0027770991437137127,1.445305585861206,19.464702606201172,0.4904147684574127,1.4781952017983713e-07,0.0005799876812465375,0,None,None
25.1286340248771,-5.981873528071446e-06,28.079381942749023,-193.29798889160156,-0.004799499176442623,0.06904637813568115,-0.0027465815655887127,1.4454398155212402,19.470678329467773,0.49063554406166077,8.535384949936997e-07,0.0005494356026073214,0,None,None
25.141717070247978,-6.055774520064006e-06,28.33415985107422,-193.2915802001953,-0.004799270536750555,0.06898490339517593,-0.0027160642202943563,1.4455437660217285,19.474836349487305,0.49080175161361694,3.0517577442878974e-07,0.0005342244841239849,0,None,None
25.154065235052258,-1.5626837921445258e-05,28.8194580078125,-193.27935791015625,-0.0047940444201231,0.0675642266869545,-0.00262451171875,1.4456946849822998,19.47305679321289,0.490852415561676,1.7356871921947459e-06,0.0005037170156949351,0,None,None
25.179457272868603,-1.791082468116656e-05,29.069067001342773,-193.27305603027344,-0.0047882841899991035,0.06600694358348846,-0.0025939939077943563,1.4457472562789917,19.470354080200195,0.490826815366745,2.2459030333266128e-06,0.0004884153420385336,0,None,None
25.192791835870594,-1.791082468116656e-05,29.328636169433594,-193.26649475097656,-0.004780349787324667,0.06387592852115631,-0.002532958984375,1.4457857608795166,19.46650505065918,0.49077171087265015,2.9611587706313003e-06,0.00044260763751101455,0,None,None
25.206199493724853,-2.4704428142285906e-05,29.848642349243164,-193.25341796875,-0.004760704003274441,0.058575697243213654,-0.0024108884390443563,1.4458155632019043,19.45945167541504,0.49066197872161865,2.5320052827737527e-06,0.00042739933535475825,0,None,None
25.219513712916523,-2.5663965061539784e-05,30.0975341796875,-193.2471466064453,-0.0047508240677416325,0.05590509623289108,-0.002349853515625,1.445807933807373,19.45795440673828,0.49064910411834717,2.9087066195643274e-06,0.00041209766887698873,0,None,None
25.24470580322668,-2.7623069399851374e-05,30.33878517150879,-193.2410430908203,-0.004741820972412825,0.05348720774054527,-0.002288818359375,1.4457883834838867,19.458467483520508,0.4906819462776184,3.2091140838019783e-06,0.00038154601287994345,0,None,None
25.25713152019307,-2.9593638828373514e-05,30.580577850341797,-193.23495483398438,-0.004734001122415066,0.05138351023197174,-0.0022277829702943563,1.4457577466964722,19.461427688598633,0.49077415466308594,3.0994415283203125e-06,0.0003663350927972997,0,None,None
25.269618292804807,-3.2168136385735124e-05,31.079923629760742,-193.22238159179688,-0.004724464379251003,0.04878120869398117,-0.0020751953125,1.4456617832183838,19.47595977783203,0.4911627471446991,1.821517912503623e-06,0.00033578004584755534,0,None,None
25.29547936236486,-3.120866676908918e-05,31.327333450317383,-193.21612548828125,-0.004722785670310259,0.04836456850171089,-0.001983642578125,1.4456005096435547,19.48469352722168,0.49139001965522766,5.393028004618827e-06,0.0003052711337851342,0,None,None
25.30914383335039,-3.49486836057622e-05,31.59370231628418,-193.20941162109375,-0.004723701160401106,0.04863094538450241,-0.0019226070726290345,1.4455225467681885,19.4959716796875,0.49167531728744507,3.7908553167653736e-06,0.0002747641465052659,0,None,None
25.321961275767535,-3.6215224099578336e-05,32.10428237915039,-193.19656372070312,-0.004724960308521986,0.04902709648013115,-0.0018310546875,1.4454408884048462,19.499906539916992,0.49176740646362305,2.2602080207434483e-06,0.0002595115867873375,0,None,None
25.34768954711035,-3.733333505806513e-05,32.34529113769531,-193.19046020507812,-0.0047219847328960896,0.048200640827417374,-0.001678466796875,1.445246934890747,19.49384307861328,0.4916059076786041,2.069473111987463e-06,0.00021375924264712372,0,None,None
25.359255820978433,-4.0855280531104654e-05,32.570735931396484,-193.1847686767578,-0.004717865027487278,0.04710781201720238,-0.0015869138296693563,1.4451476335525513,19.491792678833008,0.49154093861579895,2.212524350397871e-06,0.0001985109227181654,0,None,None
25.37400918873027,-4.098561475984752e-05,32.85830307006836,-193.177490234375,-0.004712333437055349,0.04562566056847572,-0.0014953612117096782,1.4450092315673828,19.493005752563477,0.49155211448669434,7.295608384083607e-07,0.00013738207325263296,0,None,None
25.388599567580968,-4.559757871902548e-05,33.1427116394043,-193.17030334472656,-0.004707069136202335,0.04422547295689583,-0.0014038083609193563,1.4448611736297607,19.494029998779297,0.4915558993816376,2.098083541568485e-06,0.00010687962132356186,0,None,None
25.40300705982372,-4.559757871902548e-05,33.68336486816406,-193.15667724609375,-0.004698753356933594,0.04196467995643616,-0.0012207032414153218,1.444551706314087,19.499343872070312,0.4916301965713501,3.857612682622857e-06,6.115424935104904e-05,0,None,None
25.4163310197182,-4.5517801481764764e-05,33.98859405517578,-193.14898681640625,-0.004696082789450884,0.04128166288137436,-0.0010986328125,1.444361925125122,19.50629234313965,0.4917677938938141,2.6416778382554185e-06,4.5935037913483794e-05,0,None,None
25.44539344171062,-4.7024335799505934e-05,34.25031661987305,-193.1423797607422,-0.004696120973676443,0.0413021519780159,-0.0010070799617096782,1.444191575050354,19.51568603515625,0.4919682443141937,2.0217894416418858e-06,1.52587890625e-05,0,None,None
25.457964039873332,-4.77939574921038e-05,34.495750427246094,-193.13619995117188,-0.004698409698903561,0.04193053022027016,-0.00091552734375,1.4440265893936157,19.526586532592773,0.4922061860561371,1.926422100950731e-06,0.0,0,None,None
25.47074255021289,-4.696829637396149e-05,35.01105499267578,-193.1232452392578,-0.0047059631906449795,0.04399324581027031,-0.000762939453125,1.4436646699905396,19.540651321411133,0.4924788475036621,4.982948212273186e-06,0.0,0,None,None
25.4843392460607,-4.3531170376809314e-05,35.31871795654297,-193.11550903320312,-0.004709052853286266,0.044785548001527786,-0.000640869140625,1.4434421062469482,19.544057846069336,0.4925161600112915,3.890991138177924e-06,1.52587890625e-05,0,None,None
25.513982236851007,-4.3531170376809314e-05,35.59050369262695,-193.10867309570312,-0.004712714813649654,0.04578958451747894,-0.0005493162316270173,1.4432426691055298,19.555356979370117,0.49275514483451843,2.5224685487046372e-06,1.52587890625e-05,0,None,None
25.525871655438095,-4.222651114105247e-05,35.8231201171875,-193.10281372070312,-0.004717483185231686,0.04708732292056084,-0.0004882813082076609,1.443071961402893,19.566972732543945,0.4930078089237213,2.403259259153856e-06,3.0517578125e-05,0,None,None
25.539110333193094,-3.8928479625610635e-05,36.320980072021484,-193.09027099609375,-0.004730720538645983,0.05068683251738548,-0.00033569338847883046,1.4427084922790527,19.586557388305664,0.49341532588005066,1.6212462696785224e-06,6.103515625e-05,0,None,None
25.551296045538038,-3.890725929522887e-05,36.601375579833984,-193.0832061767578,-0.0047359466552734375,0.0521143414080143,-0.000244140625,1.4425041675567627,19.588117599487305,0.49340349435806274,1.7166136956348055e-07,7.638925321388545e-05,0,None,None
25.5790049652569,-3.890725929522887e-05,36.86369705200195,-193.07659912109375,-0.004736747592687607,0.05227143317461014,-0.00018310548330191523,1.4423125982284546,19.581079483032227,0.49317672848701477,-2.7656554379973386e-07,9.1552734375e-05,0,None,None
25.591114981565624,-3.73108996427618e-05,37.100704193115234,-193.07061767578125,-0.004732551518827677,0.05114445462822914,-0.00012207023974042386,1.4421393871307373,19.56943130493164,0.49283885955810547,2.7513503937370842e-06,0.0001220703125,0,None,None
25.60370088694617,-3.8682628655806184e-05,37.60715866088867,-193.05784606933594,-0.004715461749583483,0.04654773697257042,2.255690014862921e-05,1.441765546798706,19.556638717651367,0.49241387844085693,1.6641616866763798e-06,0.00016789002292377767,0,None,None
25.63036104431376,-3.857155388686806e-05,37.86821365356445,-193.05128479003906,-0.004706153646111488,0.04398641735315323,9.157928434433416e-05,1.441572666168213,19.55388069152832,0.49228930473327637,2.0122527075727703e-06,0.00016789002292377767,0,None,None
25.642457923386246,-3.857155388686806e-05,38.10470962524414,-193.04534912109375,-0.004697570577263832,0.04169830307364464,0.00015223101945593953,1.4413975477218628,19.551509857177734,0.49217864871025085,6.628036430811335e-07,0.0001526355668925671,0,None,None
25.653998530004174,-3.2664156606188044e-05,38.60141372680664,-193.03285217285156,-0.004680900368839502,0.037217698991298676,0.0002723357465583831,1.441037654876709,19.549694061279297,0.49203401803970337,2.57492069977161e-06,0.00016789002292377767,0,None,None
25.66786703793332,-3.221450242563151e-05,38.87257385253906,-193.02601623535156,-0.004673576448112726,0.03527792543172836,0.00033321662340313196,1.44084632396698,19.55204963684082,0.49203765392303467,1.7738342421580455e-06,0.0001984009342032752,0,None,None
25.693765612784773,-3.221450242563151e-05,39.107784271240234,-193.02008056640625,-0.004669418092817068,0.03409630060195923,0.00038338403101079166,1.440683364868164,19.556734085083008,0.4921063780784607,7.77244565597357e-07,0.00021365710395722116,0,None,None
25.707190981600434,-3.170948912156746e-05,39.37041473388672,-193.0134735107422,-0.004666976630687714,0.03346792608499527,0.00043857627315446734,1.4405049085617065,19.56492805480957,0.4922575354576111,4.920959327137098e-06,0.00022900895721135917,0,None,None
25.71960685728118,-3.118854510830715e-05,39.8764533996582,-193.00076293945312,-0.004669570829719305,0.03421924635767937,0.0005370898870751262,1.4401707649230957,19.58307456970215,0.4926067888736725,2.9802322387695312e-06,0.00021365710395722116,0,None,None
25.73303949693218,-2.7554322514333762e-05,40.21480941772461,-192.99224853515625,-0.004672431852668524,0.035018377006053925,0.0006002215668559074,1.4399563074111938,19.58564567565918,0.49260392785072327,1.344680754300498e-06,0.00022900895721135917,0,None,None
25.763472499791533,-2.5517290850984864e-05,40.47247314453125,-192.9857635498047,-0.0046720122918486595,0.034915924072265625,0.0006418265402317047,1.4397974014282227,19.581729888916016,0.4924553334712982,1.7404555592293036e-06,0.0002442598051999225,0,None,None
25.776773173827678,-2.458324706822168e-05,40.732933044433594,-192.9792022705078,-0.004671134985983372,0.034629058092832565,0.0006803698488511145,1.4396411180496216,19.583120346069336,0.49243974685668945,3.957748333505151e-07,0.0002595115867873375,0,None,None
25.790714841801673,-2.5091207135119475e-05,41.00596618652344,-192.97232055664062,-0.0046700285747647285,0.03434218838810921,0.000719627772923559,1.4394811391830444,19.58527374267578,0.4924398958683014,7.581710406157072e-07,0.0002747641465052659,0,None,None
25.8034157124348,-2.5279068722738884e-05,41.51972198486328,-192.9593963623047,-0.004668388050049543,0.03393920883536339,0.0007874486036598682,1.4391913414001465,19.59087371826172,0.49247869849205017,2.822876012942288e-06,0.0002899420877938822,0,None,None
25.82974524004385,-2.3448495994671248e-05,41.770591735839844,-192.95309448242188,-0.0046685789711773396,0.03399385139346123,0.0008175624534487724,1.4390547275543213,19.595863342285156,0.4925561845302582,1.749992293298419e-06,0.00029001736158368243,0,None,None
25.841244779061526,-2.1479552742675878e-05,41.99598693847656,-192.9474334716797,-0.0046696471981704235,0.034287549555301666,0.0008415943593718112,1.4389352798461914,19.601415634155273,0.49265438318252563,1.1301040103717241e-06,0.0002899420877938822,0,None,None
25.85746265342459,-2.069888978439849e-05,42.31398010253906,-192.93942260742188,-0.004672240931540728,0.035011548548936844,0.0008742272038944066,1.4387739896774292,19.60944938659668,0.49279889464378357,1.4925002460586256e-06,0.0003052711337851342,0,None,None
25.87084215460345,-1.8584645658847876e-05,42.84171676635742,-192.9261474609375,-0.004677314776927233,0.03631611540913582,0.0009167108219116926,1.4385212659835815,19.614688873291016,0.49283891916275024,3.33786012163273e-08,0.000320525383569336,0,None,None
25.89763820869848,-1.8584645658847876e-05,43.10193634033203,-192.9196319580078,-0.004675521515309811,0.0358448326587677,0.0009354599169455469,1.4384011030197144,19.605920791625977,0.4925743341445923,3.433227391269611e-07,0.0002899420877938822,0,None,None
25.91089679626748,-1.809195600799285e-05,43.36172103881836,-192.91310119628906,-0.0046687317080795765,0.03405532240867615,0.0009520102757960558,1.4382829666137695,19.5914249420166,0.4921669661998749,3.0040739602554822e-06,0.00029001736158368243,0,None,None
25.926246759016067,-1.4131548596196808e-05,43.66228103637695,-192.9055633544922,-0.004657058510929346,0.03092026524245739,0.0009676351328380406,1.438151478767395,19.579681396484375,0.4918263256549835,2.5653839657024946e-06,0.0002747641465052659,0,None,None
25.939693437423557,-1.0976546946039889e-05,43.92544174194336,-192.89895629882812,-0.0046458435244858265,0.027887661010026932,0.0009779285173863173,1.4380419254302979,19.571138381958008,0.491574764251709,1.0442734037496848e-06,0.00027468469280082233,0,None,None
25.955159535165876,-1.058513043972198e-05,44.463417053222656,-192.8854522705078,-0.00461997976526618,0.0209413580596447,0.0009903350146487355,1.43783438205719,19.552738189697266,0.4910384714603424,9.72747784544481e-07,0.0002595115867873375,0,None,None
25.967201428953558,-6.615513939323137e-06,44.754451751708984,-192.87814331054688,-0.004605789203196764,0.017054980620741844,0.0009927059290930629,1.4377323389053345,19.544370651245117,0.4907921850681305,1.2445449328879477e-06,0.0002595115867873375,0,None,None
25.996747004333884,-5.970124220766593e-06,45.0407600402832,-192.87095642089844,-0.004592590034008026,0.013516943901777267,0.0009929146617650986,1.437639594078064,19.53864097595215,0.49061331152915955,4.992484718968626e-06,0.0002442598051999225,0,None,None
26.00911449594423,-5.970124220766593e-06,45.28235626220703,-192.86489868164062,-0.004583053290843964,0.010969283059239388,0.0009916360722854733,1.4375660419464111,19.536359786987305,0.49052655696868896,4.2963029045495205e-06,0.00022891362287410732,0,None,None
26.024434867780656,-3.744679133887985e-06,45.58163833618164,-192.85739135742188,-0.0045738983899354935,0.008530905470252037,0.0009885838953778148,1.437483787536621,19.53731346130371,0.49051710963249207,4.038810857309727e-06,0.00021375924264712372,0,None,None
26.039849072229117,3.867416751290875e-07,46.12627029418945,-192.84371948242188,-0.004568824544548988,0.007240000180900097,0.00098055275157094,1.4374115467071533,19.552995681762695,0.49085864424705505,3.1185149964585435e-06,0.0001985109227181654,0,None,None
26.05230016214773,3.0588387289753882e-06,46.38417434692383,-192.8372344970703,-0.00457279197871685,0.008285018615424633,0.0009616295574232936,1.4373160600662231,19.56602668762207,0.4911651611328125,1.8692015828492003e-06,0.00021375924264712372,0,None,None
26.078970494214445,2.9305354019015795e-06,46.64820861816406,-192.83059692382812,-0.004580116365104914,0.010258943773806095,0.0009480805601924658,1.4372785091400146,19.577985763549805,0.49144449830055237,2.0503996438492322e-06,0.00021365710395722116,0,None,None
26.092585714999586,2.9305354019015795e-06,46.91488265991211,-192.8239288330078,-0.004588966257870197,0.012656339444220066,0.0009329164167866111,1.437248706817627,19.586530685424805,0.4916386604309082,2.3746490569465095e-06,0.0001831452008691071,0,None,None
26.10607770131901,8.203110155591276e-06,47.43891525268555,-192.81076049804688,-0.004602660890668631,0.016365133225917816,0.0008996696560643613,1.4372081756591797,19.58600616455078,0.4915943443775177,2.8753279366355855e-06,0.0001831452008691071,0,None,None
26.119335999246687,7.968988029460888e-06,47.73073959350586,-192.80343627929688,-0.004604148678481579,0.016774943098425865,0.0008759298943914473,1.437196135520935,19.57691192626953,0.49135228991508484,2.675056293810485e-06,0.0001678466796875,0,None,None
26.146229533012956,9.246085937775206e-06,47.96541213989258,-192.7975311279297,-0.004603767301887274,0.016774943098425865,0.0008759298943914473,1.437196135520935,19.57438087463379,0.49127960205078125,2.708434976739227e-06,0.00016789002292377767,0,None,None
26.160733530763537,8.96980145626003e-06,48.24934768676758,-192.79042053222656,-0.004603805486112833,0.016774943098425865,0.0008759298943914473,1.437196135520935,19.57779884338379,0.49135470390319824,2.9468535558407893e-06,0.0001526355668925671,0,None,None
26.173167502041906,9.637510629545432e-06,48.74109649658203,-192.7781219482422,-0.004609603900462389,0.01827075518667698,0.0007846373482607305,1.437211513519287,19.592830657958984,0.491717666387558,2.6941299893223913e-06,9.1552734375e-05,0,None,None
26.185838126111776,1.308263836108381e-05,48.988914489746094,-192.77191162109375,-0.004614181350916624,0.019500188529491425,0.0007591333123855293,1.4372295141220093,19.59822654724121,0.4918506145477295,2.117157009706716e-06,7.638925321388545e-05,0,None,None
26.212498291861266,1.7999378542299382e-05,49.26359176635742,-192.76502990722656,-0.004618110600858927,0.02056569792330265,0.000727252394426614,1.437257170677185,19.59739112854004,0.4918329417705536,2.19345088225964e-06,4.5935037913483794e-05,0,None,None
26.224717823322862,1.9652055925689638e-05,49.50301742553711,-192.75901794433594,-0.004618949722498655,0.02079109475016594,0.000697753275744617,1.437288522720337,19.5919246673584,0.49170053005218506,2.5510787509119837e-06,4.57763671875e-05,0,None,None
26.237034575548023,1.869373045337852e-05,49.999046325683594,-192.74655151367188,-0.004617500118911266,0.0203949436545372,0.0006336224032565951,1.4373698234558105,19.588258743286133,0.49161845445632935,2.7656553811539197e-06,4.57763671875e-05,0,None,None
26.26299788756296,1.9587372662499547e-05,50.25286102294922,-192.7401885986328,-0.004615630954504013,0.019903169944882393,0.0005985312163829803,1.4374195337295532,19.586252212524414,0.49157530069351196,3.499984586596838e-06,3.0755072587198445e-05,0,None,None
26.280918040778488,1.7674912669463083e-05,50.603816986083984,-192.73138427734375,-0.0046124267391860485,0.019056227058172226,0.0005490808980539441,1.4374955892562866,19.584762573242188,0.4915465712547302,2.4127959932229714e-06,1.52587890625e-05,0,None,None
26.293625771533698,1.7674912669463083e-05,50.85269546508789,-192.72512817382812,-0.004610671661794186,0.018591774627566338,0.0005175662226974964,1.43755304813385,19.585718154907227,0.49157842993736267,2.3365021206700476e-06,1.52587890625e-05,0,None,None
26.30510005308315,1.8498683857615106e-05,51.3275032043457,-192.7132110595703,-0.004610099829733372,0.018496152013540268,0.00045617902651429176,1.4376729726791382,19.593734741210938,0.4917992949485779,3.2281875519402092e-06,0.0,0,None,None
26.317862974945456,1.9797722416114993e-05,51.589256286621094,-192.70664978027344,-0.004612655378878117,0.019185999408364296,0.0004207695019431412,1.4377450942993164,19.601497650146484,0.4920078217983246,2.5892256871884456e-06,1.5728399755926745e-05,0,None,None
26.343996580224484,1.9797722416114993e-05,51.83982849121094,-192.7003631591797,-0.004616584628820419,0.02023785002529621,0.0003871001536026597,1.4378182888031006,19.608810424804688,0.49220553040504456,-1.2159347306806012e-06,1.5728399755926745e-05,0,None,None
26.3555343397893,2.0749053874169476e-05,52.31698226928711,-192.68841552734375,-0.00462543498724699,0.022607924416661263,0.00032172835199162364,1.43796706199646,19.616527557373047,0.4924304783344269,-1.3351440202313825e-06,6.115424935104904e-05,0,None,None
26.381067639682442,2.35833886108594e-05,52.56700134277344,-192.68212890625,-0.004627990536391735,0.02330460399389267,0.0002857239742297679,1.4380496740341187,19.614561080932617,0.49240171909332275,-8.344650268554688e-07,6.115424935104904e-05,0,None,None
26.392358268145472,2.35833886108594e-05,52.78848648071289,-192.67657470703125,-0.004629936069250107,0.023816868662834167,0.00025392690440639853,1.4381256103515625,19.617122650146484,0.4924848973751068,-8.821486972010462e-07,7.638925321388545e-05,0,None,None
26.405365735758096,2.0758076061611064e-05,53.280517578125,-192.6642303466797,-0.0046356962993741035,0.02536732144653797,0.0001834578433772549,1.4383018016815186,19.626039505004883,0.4927486181259155,-3.3855437209240336e-07,9.163217277118159e-05,0,None,None
26.42957007838413,2.0758076061611064e-05,53.51874923706055,-192.65826416015625,-0.004637870471924543,0.02594105713069439,0.00015025677566882223,1.4383888244628906,19.625701904296875,0.49276041984558105,-2.813339108342916e-07,0.00010708365514845428,0,None,None
26.442053506616503,2.2536665710504167e-05,53.763710021972656,-192.65213012695312,-0.0046382141299545765,0.02594105713069439,0.00015025677566882223,1.4383888244628906,19.622291564941406,0.49269813299179077,-4.0054320038507285e-07,0.00013738207325263296,0,None,None
26.45483825961128,2.3593744117533788e-05,54.249267578125,-192.6399383544922,-0.004637450911104679,0.02596154808998108,8.015800995053723e-05,1.4385744333267212,19.62411880493164,0.49279317259788513,6.294250169958104e-07,0.0001526355668925671,0,None,None
26.47949271975085,2.3921840693219565e-05,54.498416900634766,-192.63368225097656,-0.004637222271412611,0.02581128291785717,1.241960944753373e-05,1.438762903213501,19.625835418701172,0.4928635060787201,7.486343065465917e-07,0.000152587890625,0,None,None
26.49183600815013,2.262638372485526e-05,54.740692138671875,-192.62759399414062,-0.00463741272687912,0.02581128291785717,1.241960944753373e-05,1.438762903213501,19.628732681274414,0.49296215176582336,-2.3984907784324605e-06,0.0001526355668925671,0,None,None
26.50394465541467,2.1518595531233586e-05,55.25969696044922,-192.6145477294922,-0.004641075152903795,0.026801660656929016,-9.155271982308477e-05,1.439072608947754,19.641584396362305,0.4933413565158844,-2.140998731192667e-06,0.0001526355668925671,0,None,None
26.530326030682772,1.8012931832345203e-05,55.49665451049805,-192.60861206054688,-0.004645080305635929,0.027880830690264702,-0.00012207027612021193,1.4391697645187378,19.65066146850586,0.4935925602912903,-1.5497207641601562e-06,0.00016789002292377767,0,None,None
26.54241398209706,1.883525874291081e-05,55.73426055908203,-192.60263061523438,-0.004649963229894638,0.029199056327342987,-0.00015258791972883046,1.4392670392990112,19.657636642456055,0.4937928020954132,-1.9025802657779423e-06,0.0001526355668925671,0,None,None
26.554690841119736,1.828946733439807e-05,56.22118377685547,-192.5904083251953,-0.0046578217297792435,0.03130275383591652,-0.00021362306142691523,1.4394632577896118,19.65971565246582,0.4938978850841522,-1.0824203400261467e-06,0.00016789002292377767,0,None,None
26.58002371015027,1.677694672252983e-05,56.47364807128906,-192.58407592773438,-0.004658241290599108,0.03141886740922928,-0.00024414061044808477,1.439562439918518,19.65462875366211,0.4937969148159027,-1.4972686130931834e-06,0.0001831452008691071,0,None,None
26.592072751838714,1.795700882212259e-05,56.71045684814453,-192.57814025878906,-0.004657554440200329,0.03122762404382229,-0.00024414058134425431,1.4396532773971558,19.65457534790039,0.4938226640224457,-4.940032795275329e-06,0.0001984009342032752,0,None,None
26.60440935054794,1.679527667874936e-05,57.185638427734375,-192.56619262695312,-0.004658660851418972,0.03154181316494942,-0.00030517575214616954,1.4398339986801147,19.666236877441406,0.4941689670085907,-2.7751921152230352e-06,0.0001983642578125,0,None,None
26.629056233447045,1.760814484441653e-05,57.437747955322266,-192.5598602294922,-0.004661445505917072,0.032279472798109055,-0.0003356933011673391,1.4399293661117554,19.674137115478516,0.49439719319343567,-1.7786026091926033e-06,0.0001985109227181654,0,None,None
26.64083939185366,1.3608389963337686e-05,57.66963577270508,-192.5540313720703,-0.004664840642362833,0.03320154920220375,-0.0003356933011673391,1.4400153160095215,19.68046760559082,0.49458029866218567,-2.0313261757110013e-06,0.0001985109227181654,0,None,None
26.653441466856748,1.278739728149958e-05,58.167083740234375,-192.54153442382812,-0.004668998531997204,0.03431486710906029,-0.00039672854472883046,1.4401922225952148,19.679840087890625,0.49461713433265686,-1.9025802657779423e-06,0.0001984009342032752,0,None,None
26.6792969009839,1.0623546586430166e-05,58.426517486572266,-192.53501892089844,-0.004668845795094967,0.03431486710906029,-0.00039672854472883046,1.4401922225952148,19.679258346557617,0.49462804198265076,-2.346038854739163e-06,0.0001985109227181654,0,None,None
26.691629643086344,1.1995301974820904e-05,58.66919708251953,-192.52891540527344,-0.004667472559958696,0.03387773782014847,-0.0004272460355423391,1.4403575658798218,19.67707633972168,0.4945988059043884,-2.346038854739163e-06,0.0001984009342032752,0,None,None
26.703284242656082,8.02376598585397e-06,59.14548110961914,-192.5169219970703,-0.00466091139242053,0.032101888209581375,-0.000457763671875,1.4405020475387573,19.669836044311523,0.49446365237236023,-1.7356871921947459e-06,0.00016789002292377767,0,None,None
26.72788920486346,8.02376598585397e-06,59.38242721557617,-192.510986328125,-0.004656143020838499,0.03081098198890686,-0.0004577635554596782,1.4405680894851685,19.666234970092773,0.49439510703086853,-1.8787383169183158e-06,0.0001834627480531471,0,None,None
26.740630825515836,6.415199550247053e-06,59.86770248413086,-192.49880981445312,-0.004645423963665962,0.02790815196931362,-0.00048828116268850863,1.4406933784484863,19.662166595458984,0.49433502554893494,-8.344650268554688e-07,0.00021375924264712372,0,None,None
26.752570068929344,7.384047876257682e-06,60.11095428466797,-192.49267578125,-0.004640769679099321,0.026644567027688026,-0.00048828122089616954,1.440751075744629,19.662927627563477,0.4943764805793762,-3.433227391269611e-07,0.00018310546875,0,None,None
26.777476117480546,7.384047876257682e-06,60.3574333190918,-192.48646545410156,-0.004637069534510374,0.02572249062359333,-0.00048828122089616954,1.4408069849014282,19.66632843017578,0.4944842457771301,-8.773803301664884e-07,0.0001680199855464572,0,None,None
26.79033207381144,-2.4995342684519528e-08,60.8392448425293,-192.47434997558594,-0.004636726342141628,0.02559271827340126,-0.000518798828125,1.4409096240997314,19.68148422241211,0.49489954113960266,5.102157274450292e-07,0.00016789002292377767,0,None,None
26.801964672748,-2.4995342684519528e-08,61.09169387817383,-192.46800231933594,-0.004639587365090847,0.026357699185609818,-0.000518798828125,1.4409570693969727,19.689157485961914,0.4951081871986389,-2.4890898657758953e-06,0.00016789002292377767,0,None,None
26.83103945152834,1.6428690230441134e-07,61.41176223754883,-192.4599609375,-0.004643783438950777,0.027471018955111504,-0.0005187987699173391,1.4410104751586914,19.69368553161621,0.49524232745170593,-2.002715973503655e-06,0.0001680199855464572,0,None,None
26.84287306247279,1.6428690230441134e-07,61.64479446411133,-192.4541015625,-0.004645271226763725,0.027880830690264702,-0.0005187987117096782,1.4410451650619507,19.691320419311523,0.4951975643634796,-2.002715973503655e-06,0.0001526355668925671,0,None,None
26.85518605960533,-2.6864588562602876e-06,62.15800476074219,-192.4412078857422,-0.004642067011445761,0.026992905884981155,-0.0005187987699173391,1.4411073923110962,19.683305740356445,0.49502426385879517,-1.6164779026439646e-06,0.00016789002292377767,0,None,None
26.88090868247673,-1.4188541399562382e-06,62.39352035522461,-192.43527221679688,-0.004640311934053898,0.026521623134613037,-0.000518798828125,1.4411307573318481,19.685609817504883,0.4950948655605316,-2.365112322877394e-06,0.0001526355668925671,0,None,None
26.893054622691125,-3.034291012227186e-06,62.63264846801758,-192.42926025390625,-0.004639320075511932,0.026262076571583748,-0.000518798828125,1.4411510229110718,19.688554763793945,0.4951798617839813,-1.8692015828492003e-06,0.0001375408659158321,0,None,None
26.908716989215463,-3.146942617604509e-06,62.94105911254883,-192.42147827148438,-0.004638938698917627,0.026262076571583748,-0.000518798828125,1.4411510229110718,19.692060470581055,0.4952815771102905,-2.2029876163287554e-06,0.00010687962132356186,0,None,None
26.920862649101764,-7.466174793080427e-06,63.44010543823242,-192.408935546875,-0.004639281891286373,0.026262076571583748,-0.000518798828125,1.4411510229110718,19.696796417236328,0.4954168200492859,-1.6832351548146107e-06,0.0001068115234375,0,None,None
26.94692222448066,-6.382020728779025e-06,63.69355392456055,-192.40257263183594,-0.004639358259737492,0.026262076571583748,-0.000518798828125,1.4411510229110718,19.697463989257812,0.4954405128955841,-1.7118453570219572e-06,0.00012230849870209807,0,None,None
26.95955622429028,-7.331130291277077e-06,63.94239044189453,-192.3963165283203,-0.0046385955065488815,0.02606400102376938,-0.000457763671875,1.4412025213241577,19.695768356323242,0.49540331959724426,-1.430511474609375e-06,0.00010687962132356186,0,None,None
26.971395957749337,-6.798636150051607e-06,64.42647552490234,-192.38414001464844,-0.004633636213839054,0.024732112884521484,-0.00042724606464616954,1.4411940574645996,19.688783645629883,0.4952372908592224,-1.2922287169203628e-06,0.00010708365514845428,0,None,None
26.99611140647903,-7.186808034020942e-06,64.66212463378906,-192.37820434570312,-0.004629821516573429,0.023687094449996948,-0.0004272460355423391,1.441185712814331,19.68515968322754,0.49514997005462646,-1.931190354298451e-06,9.187007582696759e-05,0,None,None
27.0076362635009,-9.785562724573538e-06,64.88896179199219,-192.37249755859375,-0.0046257018111646175,0.022594263777136803,-0.0004272460355423391,1.4411736726760864,19.682340621948242,0.4950798749923706,-1.5258788153005298e-06,7.667446610352241e-05,0,None,None
27.021054796408862,-1.0155720701732207e-05,65.39237976074219,-192.35983276367188,-0.004617042373865843,0.02025151066482067,-0.00039672848652116954,1.4411371946334839,19.680971145629883,0.49504512548446655,-1.1205672763026087e-06,6.151014517439689e-05,0,None,None
27.04773111687973,-8.698981218913104e-06,65.67806243896484,-192.35264587402344,-0.004614104982465506,0.019452378153800964,-0.00036621096660383046,1.4411119222640991,19.68456268310547,0.49513593316078186,-1.1444091114753974e-06,6.151014517439689e-05,0,None,None
27.059711714740843,-1.1171795449627098e-05,65.91394805908203,-192.34671020507812,-0.004613456781953573,0.019288452342152596,-0.0003662109375,1.4410886764526367,19.689773559570312,0.4952643811702728,-1.4829635119895102e-06,4.640779518354965e-05,0,None,None
27.071213128510863,-1.0313859093002975e-05,66.41216278076172,-192.3341827392578,-0.004616889636963606,0.02021735906600952,-0.0003051757230423391,1.441034197807312,19.702377319335938,0.4955754280090332,-9.298324243900424e-07,4.640779518354965e-05,0,None,None
27.097033401485533,-1.0313859093002975e-05,66.64918518066406,-192.3282012939453,-0.004619712941348553,0.0209072083234787,-0.00030517581035383046,1.4410064220428467,19.704132080078125,0.49561622738838196,-4.76837158203125e-07,1.7059844799040144e-05,0,None,None
27.111182583030313,-1.088428598450264e-05,66.92794036865234,-192.32118225097656,-0.0046206284314394,0.021166754886507988,-0.00027465823222883046,1.4409703016281128,19.699148178100586,0.4954855740070343,-1.3160705520931515e-06,0.0,0,None,None
27.122305362019688,-1.3654575923283119e-05,67.39545440673828,-192.30943298339844,-0.00461437227204442,0.019486527889966965,-0.00024414065410383046,1.440900206565857,19.684215545654297,0.49509578943252563,-1.9025802657779423e-06,7.62939453125e-06,0,None,None
27.134928996209055,-1.167540449387161e-05,67.67774963378906,-192.3023223876953,-0.004609184339642525,0.01810683123767376,-0.00021362306142691523,1.4408533573150635,19.681447982788086,0.49501827359199524,1.91211688616022e-06,1.7059844799040144e-05,0,None,None
27.160626599099487,-1.167540449387161e-05,67.90119171142578,-192.29669189453125,-0.004605102352797985,0.017020830884575844,-0.00021362306142691523,1.4408146142959595,19.67903709411621,0.49495062232017517,1.997947720155935e-06,3.145679951185349e-05,0,None,None
27.173526605125517,-1.3989829312777147e-05,68.39906311035156,-192.28419494628906,-0.004596557468175888,0.014712226577103138,-0.00018310549785383046,1.4407223463058472,19.675607681274414,0.494843065738678,1.7738342421580455e-06,1.7059844799040144e-05,0,None,None
27.185930511448532,-1.2975390745850746e-05,68.6424560546875,-192.27806091308594,-0.004593315068632364,0.013851623050868511,-0.00015258787607308477,1.4406746625900269,19.67616844177246,0.49484682083129883,2.708434976739227e-06,3.0517578125e-05,0,None,None
27.211259935516864,-1.2975390745850746e-05,68.8974609375,-192.2716522216797,-0.004591293167322874,0.013312038034200668,-0.00012207030522404239,1.4406232833862305,19.679126739501953,0.4949099123477936,3.271102741564391e-06,3.145679951185349e-05,0,None,None
27.223876517731696,-1.41463697218569e-05,69.14579772949219,-192.26541137695312,-0.004591293167322874,0.013312038034200668,-0.00012207030522404239,1.4406232833862305,19.684906005859375,0.4950425326824188,2.231597818536102e-06,3.145679951185349e-05,0,None,None
27.239022840280086,-1.3800170563627034e-05,69.67970275878906,-192.25196838378906,-0.004597892519086599,0.015108377672731876,-6.1035138060105965e-05,1.4404610395431519,19.699068069458008,0.4953700006008148,2.19345088225964e-06,6.151014517439689e-05,0,None,None
27.250984630081803,-1.5159732356551103e-05,69.95076751708984,-192.24514770507812,-0.004602355882525444,0.016303660348057747,-3.0517576306010596e-05,1.4404029846191406,19.70362663269043,0.4954681992530823,2.441406195430318e-06,6.151014517439689e-05,0,None,None
27.277303111273795,-1.54562894749688e-05,70.19834899902344,-192.2389373779297,-0.004607467446476221,0.01769701950252056,-3.051756357308477e-05,1.4403486251831055,19.71065902709961,0.49562957882881165,2.5224685487046372e-06,4.640779518354965e-05,0,None,None
27.28936549508944,-1.4578221453120932e-05,70.43612670898438,-192.23297119140625,-0.0046118926256895065,0.018885472789406776,0.0,1.4402949810028076,19.711528778076172,0.4956361651420593,2.2411345526052173e-06,4.640779518354965e-05,0,None,None
27.30298189399764,-1.2449576388462447e-05,70.94800567626953,-192.22007751464844,-0.00461158761754632,0.018817169591784477,3.501644459902309e-05,1.4401737451553345,19.69200325012207,0.49511516094207764,2.0122527075727703e-06,7.780486318348365e-05,0,None,None
27.32708886032924,-1.4059016393730417e-05,71.17912292480469,-192.21424865722656,-0.004606819245964289,0.01753309555351734,5.17722983204294e-05,1.4401167631149292,19.683061599731445,0.494875431060791,1.9884109860868193e-06,9.28155903670993e-05,0,None,None
27.33904138719663,-1.5845158486627042e-05,71.66577911376953,-192.2020263671875,-0.0045937346294522285,0.013933585025370121,8.896610961528495e-05,1.4399930238723755,19.669490814208984,0.4944997727870941,2.613067636048072e-06,9.1552734375e-05,0,None,None
27.364701829385012,-1.2685956789937336e-05,71.9189453125,-192.19566345214844,-0.0045854183845222,0.01171377394348383,0.00010717398981796578,1.4399268627166748,19.66187858581543,0.49429216980934143,2.079010073430254e-06,9.1552734375e-05,0,None,None
27.378351636696607,-1.2910322766401805e-05,72.1872329711914,-192.18890380859375,-0.004576072562485933,0.009207094088196754,0.0001262345031136647,1.4398562908172607,19.6544246673584,0.49408653378486633,5.335807600204134e-06,0.0001068115234375,0,None,None
27.390968470368534,-1.3455173757392913e-05,72.43513488769531,-192.18264770507812,-0.0045675658620893955,0.006953132338821888,0.0001431108539691195,1.4397907257080078,19.64885139465332,0.4939289689064026,4.0435788832837716e-06,0.0001373291015625,0,None,None
27.40307679818943,-1.551454624859616e-05,72.92129516601562,-192.17042541503906,-0.004553603939712048,0.0032101888209581375,0.0001760924787959084,1.4396617412567139,19.64377784729004,0.4937628209590912,3.1995773497328628e-06,0.0001373291015625,0,None,None
27.427281491924077,-1.3914754163124599e-05,73.14845275878906,-192.1647186279297,-0.004549331497400999,0.0020558869000524282,0.0001918696507345885,1.439601182937622,19.645021438598633,0.4937761723995209,2.317428425158141e-06,0.0001373291015625,0,None,None
27.439031049143523,-1.3993440916237887e-05,73.63862609863281,-192.15237426757812,-0.004547538701444864,0.0015846038004383445,0.00022402862668968737,1.4394735097885132,19.656108856201172,0.49401625990867615,2.703666723391507e-06,0.0001680199855464572,0,None,None
27.45222542854026,-1.3993440916237887e-05,73.931396484375,-192.14503479003906,-0.004551238846033812,0.002588641596958041,0.00024429921177215874,1.4393985271453857,19.66461181640625,0.4942060708999634,2.5510787509119837e-06,0.0001373291015625,0,None,None
