time,Steering Angle,X Position,Y Position,Z Position, Pitch, Roll, Yaw, X velocity, Y velocity, Z velocity, Lateral Position,Lap Count, Lane Invasion, Collision Sensor
36.94490110955667,-0.0003616549074649811,131.0379638671875,-190.98060607910156,-0.004787254147231579,0.06619136035442352,0.012908696196973324,1.3205883502960205,13.176475524902344,0.3032248318195343,-1.7976760773308342e-06,0.27044086454139776,0,None,None
36.94490110955667,-0.0003616549074649811,131.37936401367188,-190.97274780273438,-0.0047868345864117146,0.06605475395917892,0.012718206271529198,1.31727933883667,13.190091133117676,0.3028588891029358,-9.059905892172537e-08,0.27115818451397633,0,None,None
36.987973650800996,-0.000341072678565979,131.7741241455078,-190.9636688232422,-0.004786262288689613,0.065890833735466,0.012421633116900921,1.3137621879577637,13.205775260925293,0.30247774720191956,-5.340576194612368e-07,0.2719975362523252,0,None,None
37.01060871023219,-0.0002618618309497833,132.23167419433594,-190.95318603515625,-0.0047855377197265625,0.06571324914693832,0.012041285634040833,1.3100591897964478,13.223873138427734,0.3021421432495117,-8.106231348392612e-07,0.27302031921690106,0,None,None
37.03595175954979,-0.00022489018738269806,132.56980895996094,-190.94546508789062,-0.004785079974681139,0.06559029966592789,0.011670561507344246,1.307653784751892,13.237191200256348,0.3019857406616211,-1.0538101378188003e-06,0.2737986550988926,0,None,None
37.060551154310815,-0.00020520202815532684,132.91636657714844,-190.9375762939453,-0.004784584045410156,0.0654468685388565,0.011257271282374859,1.3054542541503906,13.25079345703125,0.30184152722358704,-3.4809110616151884e-07,0.2746227529748103,0,None,None
37.09717625367921,-0.0001636762171983719,133.21951293945312,-190.93063354492188,-0.0047840881161391735,0.06533758342266083,0.01086951419711113,1.303754210472107,13.262652397155762,0.3017898499965668,6.341933840303682e-07,0.27529431114735536,0,None,None
37.122628523851745,-9.888224303722382e-05,133.69810485839844,-190.9197235107422,-0.004783401265740395,0.06514634191989899,0.010205677710473537,1.3014830350875854,13.28130054473877,0.30177444219589233,8.392333938900265e-07,0.2764086178367658,0,None,None
37.1450316401897,-9.888224303722382e-05,133.85487365722656,-190.91616821289062,-0.004783286713063717,0.06508486717939377,0.00997365266084671,1.3008493185043335,13.287388801574707,0.3017888367176056,-2.7656554379973386e-07,0.2767903505337502,0,None,None
37.16046773537528,-6.85863196849823e-05,134.21910095214844,-190.90792846679688,-0.004782753065228462,0.06494143605232239,0.009400982409715652,1.2995946407318115,13.301497459411621,0.3018723726272583,1.7309188251601881e-06,0.2777063558155851,0,None,None
37.185006681713276,-2.851150929927826e-05,134.3865203857422,-190.90411376953125,-0.004782447591423988,0.06487313657999039,0.00913232658058405,1.2991145849227905,13.307964324951172,0.30194586515426636,8.583068478174027e-08,0.27810295886933795,0,None,None
37.196130894939415,-1.3319775462150574e-05,134.53460693359375,-190.9007568359375,-0.004782409407198429,0.06482531875371933,0.008892001584172249,1.2987416982650757,13.313676834106445,0.30201926827430725,2.3412703740177676e-06,0.2784694376691014,0,None,None
37.20935454021674,2.816319465637207e-06,134.86117553710938,-190.89337158203125,-0.004781799390912056,0.06469555199146271,0.0083364462479949,1.298093557357788,13.326238632202148,0.3021986484527588,5.2452087118126656e-08,0.27927828148326206,0,None,None
37.23328396200668,2.0619481801986694e-05,135.02964782714844,-190.88954162597656,-0.004781761206686497,0.06463407725095749,0.008046342059969902,1.2978426218032837,13.332706451416016,0.3023049533367157,-8.630752290628152e-07,0.279690522188902,0,None,None
37.245265194098465,5.1409006118774414e-05,135.32691955566406,-190.8827667236328,-0.004781265277415514,0.06451795995235443,0.00752983707934618,1.2975430488586426,13.344087600708008,0.30253851413726807,1.2540816669570631e-06,0.2803773342681722,0,None,None
37.26800554606598,6.238557398319244e-05,135.49293518066406,-190.87901306152344,-0.004781036172062159,0.06444966048002243,0.007232293486595154,1.2974516153335571,13.35042953491211,0.30267542600631714,9.775161515790387e-07,0.28080482898290754,0,None,None
37.2801012879936,7.330439984798431e-05,135.65447998046875,-190.87535095214844,-0.0047808075323700905,0.06438819319009781,0.006944239605218172,1.297410249710083,13.356590270996094,0.3028169572353363,1.5020369801277411e-06,0.281201432094331,0,None,None
37.290726152132265,0.00011627934873104095,135.97718811035156,-190.8680419921875,-0.004780349787324667,0.06426524370908737,0.006351315416395664,1.2974852323532104,13.368866920471191,0.30316269397735596,2.0122527075727703e-06,0.2819950220669958,0,None,None
37.31508327263873,0.00011627934873104095,136.12208557128906,-190.86476135253906,-0.00478019705042243,0.06422426551580429,0.006089498288929462,1.2975807189941406,13.37436580657959,0.30331894755363464,1.7547606603329768e-06,0.2823615007317329,0,None,None
37.326378246652894,0.00014228001236915588,136.4145050048828,-190.8581085205078,-0.004779853858053684,0.06410132348537445,0.005551967769861221,1.297893762588501,13.385437965393066,0.30367511510849,-1.3160705520931515e-06,0.2830483128545104,0,None,None
37.348645881633274,0.00014885514974594116,136.5712890625,-190.85455322265625,-0.004779396113008261,0.06404668092727661,0.005261017009615898,1.2981213331222534,13.391363143920898,0.3038695156574249,-7.629394360719743e-08,0.28344529953766767,0,None,None
37.36208353552502,0.00018301792442798615,136.900390625,-190.8470458984375,-0.004779090639203787,0.06391690671443939,0.004649670794606209,1.298729419708252,13.403766632080078,0.3043174743652344,2.560615484981099e-06,0.28420838148887223,0,None,None
37.38408087741118,0.00018301792442798615,137.0461883544922,-190.84371948242188,-0.004778671078383923,0.06386909633874893,0.004383984953165054,1.2990529537200928,13.409249305725098,0.3045245110988617,3.070831326112966e-06,0.2845443523435348,0,None,None
37.396551657351665,0.0001918543130159378,137.21347045898438,-190.83993530273438,-0.004778556525707245,0.06380762159824371,0.004073234740644693,1.2994637489318848,13.415529251098633,0.3047695755958557,1.7166136956348055e-07,0.2849565931339387,0,None,None
37.41039070475381,0.00022400729358196259,137.54884338378906,-190.8323211669922,-0.00477802287787199,0.06368467956781387,0.0034590859431773424,1.300409197807312,13.428089141845703,0.3052951693534851,2.6845930278796004e-06,0.285765436863471,0,None,None
37.43218988075387,0.00022400729358196259,137.69195556640625,-190.82907104492188,-0.0047779083251953125,0.06362321227788925,0.0032032220624387264,1.3008613586425781,13.43343734741211,0.3055298626422882,6.19888282926695e-07,0.2861162781413587,0,None,None
37.444760973448865,0.00023124180734157562,137.8608856201172,-190.82525634765625,-0.004777564667165279,0.06356173753738403,0.0028933763969689608,1.3014320135116577,13.439738273620605,0.30581286549568176,1.7786026091926033e-06,0.28654377274552884,0,None,None
37.4681517778663,0.00025964342057704926,138.17543029785156,-190.81809997558594,-0.0047773742116987705,0.0634387955069542,0.0023295036517083645,1.3025952577590942,13.45144271850586,0.30637094378471375,2.140998731192667e-06,0.2872916007448873,0,None,None
37.47901821124833,0.00026786886155605316,138.32162475585938,-190.8147735595703,-0.0047769928351044655,0.06336366385221481,0.0020692364778369665,1.3031827211380005,13.456089973449707,0.30662745237350464,3.33786012163273e-08,0.2876428255351296,0,None,None
37.50082640897017,0.00029620155692100525,138.61512756347656,-190.8080596923828,-0.004774322267621756,0.06266698241233826,0.0015452592633664608,1.3044471740722656,13.460540771484375,0.3070521056652069,1.8692015828492003e-06,0.28829912969210375,0,None,None
37.51199803396594,0.00031541846692562103,138.91453552246094,-190.8012237548828,-0.0047673797234892845,0.060775019228458405,0.001001989934593439,1.3058651685714722,13.458993911743164,0.30738183856010437,2.9087066195643274e-06,0.28900119576043853,0,None,None
37.53424471325707,0.0003474093973636627,139.06488037109375,-190.79779052734375,-0.004761924501508474,0.05932702124118805,0.0007220320985652506,1.3066325187683105,13.45673942565918,0.3075468838214874,9.965896197172697e-07,0.28933716665251236,0,None,None
37.54552555817645,0.0004176720976829529,139.21664428710938,-190.7943115234375,-0.004756431560963392,0.05752385035157204,0.000271324795903638,1.3074724674224854,13.454499244689941,0.3077712655067444,-0.00017715930880513042,0.28967275390430447,0,None,None
37.55675411026459,0.0004552192986011505,139.5315704345703,-190.78707885742188,-0.004830627236515284,0.04849433898925781,-0.0011901854304596782,1.3093938827514648,13.450335502624512,0.3081285357475281,-0.007222823798656464,0.29035956603114615,0,None,None
37.58023473981302,0.0005269702523946762,139.68336486816406,-190.7836151123047,-0.0049119568429887295,0.04168464243412018,-0.001708984375,1.3104445934295654,13.448575973510742,0.30847808718681335,-0.010334768332540989,0.2907107908033454,0,None,None
37.60179906513076,0.0005616936832666397,139.9730987548828,-190.77691650390625,-0.005327834747731686,0.015224491246044636,-0.009368897415697575,1.3126639127731323,13.446272850036621,0.3085165023803711,-0.034170664846897125,0.2912908251334215,0,None,None
37.612900446983986,0.0006137751042842865,140.1221160888672,-190.7734375,-0.005750770214945078,-0.00887924525886774,-0.01541137509047985,1.3139146566390991,13.445388793945312,0.30843567848205566,-0.05041053146123886,0.2915501426085816,0,None,None
37.63505507155787,0.0006337184458971024,140.41925048828125,-190.76646423339844,-0.007162551861256361,-0.08453041315078735,-0.0331420823931694,1.3165885210037231,13.444357872009277,0.30789268016815186,-0.09277469664812088,0.2920539070687401,0,None,None
37.64689981553238,0.0006674602627754211,140.5779266357422,-190.76271057128906,-0.008289489895105362,-0.14264166355133057,-0.0463256798684597,1.3181277513504028,13.44421100616455,0.30741146206855774,-0.1203169971704483,0.2922916702541327,0,None,None
37.65784911427181,0.0006796382367610931,140.8903045654297,-190.75537109375,-0.011372566223144531,-0.2967512011528015,-0.07257080078125,1.321338176727295,13.444161415100098,0.3063717484474182,-0.17707544565200806,0.29279576002391955,0,None,None
37.684013442951255,0.0006927177309989929,141.0743865966797,-190.75119018554688,-0.013614882715046406,-0.40542635321617126,-0.0705566331744194,1.3232221603393555,13.443943977355957,0.30667081475257874,-0.19677980244159698,0.2932381575383593,0,None,None
37.69948469649535,0.0006197318434715271,141.28123474121094,-190.7469024658203,-0.0161479189991951,-0.5234929919242859,-0.0222473107278347,1.3250218629837036,13.44210433959961,0.31029006838798523,-0.18731069564819336,0.29415413498090254,0,None,None
37.71341199974995,0.0003886111080646515,141.46759033203125,-190.74313354492188,-0.01813148520886898,-0.6104686260223389,0.040974389761686325,1.326718807220459,13.439080238342285,0.3176940381526947,-0.1601472645998001,0.2950697762478815,0,None,None
37.72376387740951,2.2640451788902283e-05,141.77272033691406,-190.7362518310547,-0.020511168986558914,-0.7038577795028687,0.07997389137744904,1.330274224281311,13.434248924255371,0.3221309185028076,-0.10527520626783371,0.29584812178728054,0,None,None
37.748161735828035,-0.00037454813718795776,141.93324279785156,-190.7324981689453,-0.02146945893764496,-0.7377901673316956,0.09151758253574371,1.3318161964416504,13.432679176330566,0.3220665752887726,-0.08642715960741043,0.29613830464260205,0,None,None
37.7592010012595,-0.0017245300114154816,142.21658325195312,-190.72586059570312,-0.022777441889047623,-0.7769749760627747,0.10480061918497086,1.3325697183609009,13.432744979858398,0.3189922869205475,-0.06063155084848404,0.29661154860758765,0,None,None
37.780736154760234,-0.002509690821170807,142.37034606933594,-190.72227478027344,-0.023361511528491974,-0.7875959277153015,0.1112600639462471,1.3316656351089478,13.434709548950195,0.31672224402427673,-0.052198536694049835,0.29688613997752666,0,None,None
37.79198428418022,-0.004339978098869324,142.66943359375,-190.7154083251953,-0.024323806166648865,-0.7893102765083313,0.12021534144878387,1.3256293535232544,13.443821907043457,0.3098253309726715,-0.041509293019771576,0.29754244483879794,0,None,None
37.814635373535566,-0.0054549649357795715,142.82615661621094,-190.71180725097656,-0.024877279996871948,-0.7763670682907104,0.12235136330127716,1.3200676441192627,13.448920249938965,0.3054523169994354,-0.044154949486255646,0.2978783931529413,0,None,None
37.82609154365491,-0.009459288790822029,143.11705017089844,-190.70530700683594,-0.02622867561876774,-0.7214387059211731,0.12327662110328674,1.3039911985397339,13.458598136901855,0.293860524892807,-0.05956142395734787,0.2986869123847054,0,None,None
37.84764639928471,-0.009459288790822029,143.27137756347656,-190.7019500732422,-0.02719375491142273,-0.6745016574859619,0.12241171300411224,1.2916457653045654,13.463808059692383,0.2870490252971649,-0.07198607921600342,0.2992059214359352,0,None,None
37.85849286138546,-0.014053837396204472,143.56468200683594,-190.69573974609375,-0.029683493077754974,-0.5468453764915466,0.1174592524766922,1.2600743770599365,13.473660469055176,0.27024045586586,-0.10534811019897461,0.300365980313025,0,None,None
37.880259878817014,-0.014053837396204472,143.7127685546875,-190.6927490234375,-0.03129802644252777,-0.4632848799228668,0.11622218787670135,1.2394369840621948,13.478646278381348,0.2613016664981842,-0.12326475232839584,0.3010985605735757,0,None,None
37.89201644982677,-0.019536716863512993,144.02175903320312,-190.68714904785156,-0.0351242832839489,-0.2655031085014343,0.1470155566930771,1.1853134632110596,13.488876342773438,0.23979923129081726,-0.13669618964195251,0.3032657912037337,0,None,None
37.91342802986037,-0.019536716863512993,144.16282653808594,-190.68499755859375,-0.03673354908823967,-0.18151909112930298,0.1923425942659378,1.1549108028411865,13.492945671081543,0.2317478507757187,-0.12034323066473007,0.3046546763229939,0,None,None
37.926546650822274,-0.023320917040109634,144.51097106933594,-190.67991638183594,-0.03970096632838249,-0.019869018346071243,0.2829275131225586,1.0641999244689941,13.503077507019043,0.2084282785654068,-0.07136792689561844,0.30833283278312146,0,None,None
37.9494452214567,-0.028190938755869865,144.65110778808594,-190.6779327392578,-0.04047229513525963,0.026344038546085358,0.3050607442855835,1.0210012197494507,13.507625579833984,0.19259744882583618,-0.05444355309009552,0.30985934997094133,0,None,None
37.96427903033327,-0.0302622988820076,144.85205078125,-190.67538452148438,-0.0413074865937233,0.08184615522623062,0.3364724814891815,0.9500657916069031,13.511942863464355,0.16829198598861694,-0.037887223064899445,0.3123615830062281,0,None,None
37.975187507341616,-0.0302622988820076,144.99974060058594,-190.6736602783203,-0.04171409457921982,0.11377045512199402,0.3566862940788269,0.8929564356803894,13.510138511657715,0.15084049105644226,-0.023691289126873016,0.3139143839461583,0,None,None
38.001555074821226,-0.035567741841077805,145.35610961914062,-190.6703643798828,-0.04215553030371666,0.16794751584529877,0.40508830547332764,0.7345480918884277,13.483444213867188,0.10247687995433807,-0.00029929637094028294,0.3158400121016912,0,None,None
38.012860066141,-0.04110928997397423,145.5084686279297,-190.6693572998047,-0.042140502482652664,0.18187426030635834,0.42584848403930664,0.6572562456130981,13.460865020751953,0.07709288597106934,0.007652540225535631,0.3159011901957474,0,None,None
38.02557124744635,-0.04349012300372124,145.82562255859375,-190.66812133789062,-0.04180461913347244,0.19601276516914368,0.47172117233276367,0.4751288890838623,13.392962455749512,0.023229114711284637,0.02109905704855919,0.30621551739510716,0,None,None
38.04717844061088,-0.048467714339494705,145.96856689453125,-190.66793823242188,-0.04153980314731598,0.19660015404224396,0.49293702840805054,0.38390716910362244,13.355368614196777,-0.003861258737742901,0.025942200794816017,0.3032473129499985,0,None,None
38.05774200882297,-0.050732314586639404,146.26376342773438,-190.66848754882812,-0.04081539064645767,0.18864981830120087,0.5384261608123779,0.1771731823682785,13.270326614379883,-0.05968993902206421,0.033935245126485825,0.2963130960040082,0,None,None
38.080423771287315,-0.052998606115579605,146.40989685058594,-190.669189453125,-0.0403837189078331,0.18100683391094208,0.5615348219871521,0.06567574292421341,13.224854469299316,-0.08912345767021179,0.037088342010974884,0.29251855154905604,0,None,None
38.09149493731093,-0.06035448610782623,146.73291015625,-190.6720428466797,-0.03929119184613228,0.157094344496727,0.6174871921539307,-0.206268310546875,13.117232322692871,-0.16250772774219513,0.04254208505153656,0.26830749969904155,0,None,None
38.11616883042734,-0.06035448610782623,146.87896728515625,-190.6739044189453,-0.03875110670924187,0.1441648006439209,0.6429635286331177,-0.3399657607078552,13.065884590148926,-0.19540397822856903,0.04423155263066292,0.2605199947603295,0,None,None
38.128961425158195,-0.06870706379413605,147.18429565429688,-190.67906188964844,-0.037547264248132706,0.11362702399492264,0.6998718976974487,-0.6435851454734802,12.953310012817383,-0.2732767164707184,0.04698409140110016,0.24405909178185148,0,None,None
38.151658957707696,-0.06870706379413605,147.33865356445312,-190.682373046875,-0.03690914064645767,0.09694086760282516,0.7297870516777039,-0.809112548828125,12.89423942565918,-0.312773734331131,0.04807205870747566,0.23592013074479698,0,None,None
38.163632385316305,-0.07113315910100937,147.49232482910156,-190.68612670898438,-0.03625961393117905,0.07978343218564987,0.7598900198936462,-0.9815673828125,12.834030151367188,-0.3535156846046448,0.04880518838763237,0.2281276356735886,0,None,None
38.176868115435354,-0.08786467462778091,147.79600524902344,-190.69528198242188,-0.03494300693273544,0.044867511838674545,0.8273278474807739,-1.3551024198532104,12.709240913391113,-0.45359548926353455,0.04956619068980217,0.1928673707626856,0,None,None
38.1993380690692,-0.08786467462778091,147.94610595703125,-190.70069885253906,-0.034281156957149506,0.027402717620134354,0.8633963465690613,-1.555908441543579,12.64587116241455,-0.5028303265571594,0.04990534111857414,0.1808113142425299,0,None,None
38.21053734596353,-0.09785835444927216,148.2332763671875,-190.71278381347656,-0.03300460800528526,-0.005798830185085535,0.9354709982872009,-1.969665765762329,12.52094841003418,-0.6042563915252686,0.04995245859026909,0.15948474211018482,0,None,None
38.23308728809934,-0.10169528424739838,148.3687286376953,-190.71932983398438,-0.03240009397268295,-0.021173585206270218,0.9712688326835632,-2.179534673690796,12.460275650024414,-0.6553459763526917,0.04977698251605034,0.15078233819776404,0,None,None
38.244289040449075,-0.1079719066619873,148.64720153808594,-190.73458862304688,-0.031154440715909004,-0.05233973637223244,1.0474907159805298,-2.639678955078125,12.33293628692627,-0.7621762752532959,0.049438003450632095,0.13743043424642962,0,None,None
38.266771579976194,-0.1079719066619873,148.78419494628906,-190.7429962158203,-0.030542602762579918,-0.06722954660654068,1.0857563018798828,-2.880066394805908,12.269022941589355,-0.8155854344367981,0.04915165156126022,0.13217155687307622,0,None,None
38.27730455331039,-0.112012580037117,148.9127960205078,-190.75146484375,-0.029970206320285797,-0.08081479370594025,1.1217626333236694,-3.113983631134033,12.208065032958984,-0.867746889591217,0.04880690947175026,0.08706912796982642,0,None,None
38.290871177683584,-0.12155542522668839,149.22015380859375,-190.77427673339844,-0.028601149097085,-0.11264347285032272,1.21365487575531,-3.7096569538116455,12.058061599731445,-1.000795841217041,0.048105549067258835,0.06338727429990977,0,None,None
38.31319027754944,-0.12501272559165955,149.34596252441406,-190.7845916748047,-0.02804752252995968,-0.12481486797332764,1.2510367631912231,-3.9677438735961914,11.995142936706543,-1.0573599338531494,0.04763822630047798,0.059638562737204664,0,None,None
38.32390278938692,-0.1300944983959198,149.6390838623047,-190.8112030029297,-0.02675907127559185,-0.15237468481063843,1.3419177532196045,-4.601076126098633,11.845789909362793,-1.1908900737762451,0.047043576836586,0.07037026959375232,0,None,None
38.34784601430874,-0.1300944983959198,149.7570037841797,-190.82284545898438,-0.026248358190059662,-0.16256532073020935,1.376754879951477,-4.867433071136475,11.784744262695312,-1.244651436805725,0.04635722190141678,0.08082707169866152,0,None,None
38.35995434212964,-0.13609515130519867,150.0565948486328,-190.8553466796875,-0.024951210245490074,-0.18774822354316711,1.4702221155166626,-5.576540946960449,11.62546443939209,-1.3884601593017578,0.04569573700428009,0.03834137780379886,0,None,None
38.37350446067285,-0.1389044225215912,150.22462463378906,-190.8753662109375,-0.024228285998106003,-0.201019287109375,1.5226736068725586,-5.992984294891357,11.534303665161133,-1.4699453115463257,0.04521721601486206,0.06094955736169024,0,None,None
38.388054371695034,-0.1441580057144165,150.3905487060547,-190.89645385742188,-0.023519210517406464,-0.21340924501419067,1.5741299390792847,-6.417728900909424,11.442167282104492,-1.5537323951721191,0.04468660429120064,0.08440182450405291,0,None,None
38.413878634455614,-0.14697523415088654,150.51963806152344,-190.91372680664062,-0.022974396124482155,-0.22228848934173584,1.612345576286316,-6.75696325302124,11.369382858276367,-1.619744062423706,0.044107913970947266,0.10310411982404537,0,None,None
38.42582362412941,-0.14921188354492188,150.77500915527344,-190.95040893554688,-0.02190200798213482,-0.2387697398662567,1.6883748769760132,-7.451056480407715,11.222845077514648,-1.751211166381836,0.043378446251153946,0.14061008231855923,0,None,None
38.44712609227281,-0.1528942883014679,150.89340209960938,-190.9685516357422,-0.021409643813967705,-0.245360866189003,1.7234084606170654,-7.7825093269348145,11.168160438537598,-1.8171687126159668,0.04312139376997948,0.1582163265100774,0,None,None
38.45792363293003,-0.1544494479894638,151.1368865966797,-191.00836181640625,-0.020419234409928322,-0.25308582186698914,1.796754002571106,-8.481639862060547,11.07334041595459,-1.955916404724121,0.04271374270319939,0.158919842701552,0,None,None
38.48335914860945,-0.15646657347679138,151.29473876953125,-191.03602600097656,-0.019786452874541283,-0.254909485578537,1.845824956893921,-8.947154998779297,11.010652542114258,-2.0466272830963135,0.04258248582482338,0.17720589628563546,0,None,None
38.495186810265295,-0.15742795169353485,151.53863525390625,-191.08143615722656,-0.01883060485124588,-0.25342050194740295,1.915218710899353,-9.681805610656738,10.922758102416992,-2.1883864402770996,0.042073607444763184,0.20734953368635903,0,None,None
38.51565585366916,-0.1579665243625641,151.6481475830078,-191.10292053222656,-0.018409157171845436,-0.2507020831108093,1.945098638534546,-10.017072677612305,10.890768051147461,-2.2539141178131104,0.041968706995248795,0.22142221027912434,0,None,None
38.52701873506885,-0.1579432189464569,151.88865661621094,-191.1526641845703,-0.017501678317785263,-0.23950056731700897,2.009348154067993,-10.763138771057129,10.837475776672363,-2.401080369949341,0.04187801852822304,0.253057736493159,0,None,None
38.54865311260801,-0.15762361884117126,152.00601196289062,-191.17811584472656,-0.01705924980342388,-0.23400910198688507,2.0372233390808105,-11.131547927856445,10.749394416809082,-2.4502673149108887,0.04159361124038696,0.2688802709206084,0,None,None
38.559896649676375,-0.15555275976657867,152.24269104003906,-191.23141479492188,-0.01609371230006218,-0.24301128089427948,2.0770673751831055,-11.888598442077637,10.471532821655273,-2.52089786529541,0.04071180894970894,0.27746672195912386,0,None,None
38.580890537123196,-0.15555275976657867,152.34490966796875,-191.25552368164062,-0.01564769633114338,-0.25365954637527466,2.0923993587493896,-12.221452713012695,10.358538627624512,-2.555931329727173,0.040612466633319855,0.288436262845148,0,None,None
38.596129889483564,-0.15089644491672516,152.6024932861328,-191.3186492919922,-0.014515151269733906,-0.2836577296257019,2.12283992767334,-13.07005786895752,10.105351448059082,-2.652919054031372,0.03963157907128334,0.3176930953906116,0,None,None
38.6183108080877,-0.15089644491672516,152.72442626953125,-191.3499298095703,-0.013974456116557121,-0.2985202372074127,2.1359474658966064,-13.474934577941895,9.996489524841309,-2.702712059020996,0.03941908851265907,0.33207760971053857,0,None,None
38.628863254445605,-0.14644375443458557,152.82928466796875,-191.37757873535156,-0.013511275872588158,-0.3105755150318146,2.1464955806732178,-13.823748588562012,9.90926456451416,-2.7464797496795654,0.03918071091175079,0.3446925257232544,0,None,None
38.6503394608153,-0.14644375443458557,153.04005432128906,-191.435302734375,-0.012587509118020535,-0.33176276087760925,2.166045665740967,-14.524036407470703,9.749496459960938,-2.8376519680023193,0.038846030831336975,0.37052406735123083,0,None,None
38.66221780877095,-0.14166712760925293,153.15528869628906,-191.46807861328125,-0.012089003808796406,-0.34090837836265564,2.1752865314483643,-14.904562950134277,9.671159744262695,-2.8872287273406982,0.038730114698410034,0.3764914841509096,0,None,None
38.67367939080577,-0.1332826316356659,153.3850860595703,-191.53599548339844,-0.01111598964780569,-0.3527519404888153,2.187492847442627,-15.65251350402832,9.532818794250488,-2.9845657348632812,0.038528185337781906,0.39307734936236455,0,None,None
38.69593074906152,-0.1332826316356659,153.47787475585938,-191.564453125,-0.010729904286563396,-0.35492393374443054,2.190159559249878,-15.948444366455078,9.481801986694336,-3.0246951580047607,0.038569364696741104,0.4022208244187288,0,None,None
38.70806711621117,-0.12269234657287598,153.6910400390625,-191.6315460205078,-0.009864921681582928,-0.3544253408908844,2.1893200874328613,-16.614852905273438,9.379984855651855,-3.111981153488159,0.03837607428431511,0.42425336934708024,0,None,None
38.72905272699427,-0.11859855055809021,153.78977966308594,-191.66346740722656,-0.009478225372731686,-0.35195961594581604,2.1841084957122803,-16.914382934570312,9.33851146697998,-3.1498124599456787,0.03718084096908569,0.43492067256226447,0,None,None
38.75093280978035,-0.1112002357840538,153.99362182617188,-191.73106384277344,-0.0087377168238163,-0.34441909193992615,2.1611151695251465,-17.51344108581543,9.261008262634277,-3.228844165802002,0.0345461368560791,0.4577669324122975,0,None,None
38.76152629486751,-0.10613380372524261,154.19583129882812,-191.80032348632812,-0.008063316345214844,-0.3335864245891571,2.125706195831299,-18.08014488220215,9.194823265075684,-3.3047947883605957,0.03262348100543022,0.47640102515760185,0,None,None
38.783507425221615,-0.09839415550231934,154.29443359375,-191.83482360839844,-0.007752380333840847,-0.3272070288658142,2.1037757396698,-18.34482765197754,9.167744636535645,-3.337035655975342,0.03182275593280792,0.4794380379321379,0,None,None
38.7961014265893,-0.09233954548835754,154.41004943847656,-191.8758087158203,-0.007401390001177788,-0.31866246461868286,2.0730202198028564,-18.64307403564453,9.139394760131836,-3.372213363647461,0.031097926199436188,0.4888438828953027,0,None,None
38.81825590028893,-0.08659350872039795,154.61265563964844,-191.94911193847656,-0.006811218336224556,-0.30222219228744507,2.013582229614258,-19.139497756958008,9.09404468536377,-3.4355406761169434,0.029988622292876244,0.5028766467540888,0,None,None
38.82975933223497,-0.0769319087266922,154.71754455566406,-191.9876708984375,-0.006516952533274889,-0.29285117983818054,1.977824330329895,-19.380617141723633,9.07601261138916,-3.461082696914673,0.029566049575805664,0.5090254128955476,0,None,None
38.85089259862434,-0.0702667385339737,154.90969848632812,-192.0594024658203,-0.00600776681676507,-0.2758508324623108,1.9099653959274292,-19.7955322265625,9.046011924743652,-3.509016990661621,0.026569031178951263,0.5182472245126925,0,None,None
38.861579970340244,-0.05672255903482437,155.10964965820312,-192.13514709472656,-0.00555015541613102,-0.25979307293891907,1.833122730255127,-20.180660247802734,9.026679039001465,-3.541130542755127,0.02352248691022396,0.5178324562609553,0,None,None
38.88286102178972,-0.04573793709278107,155.19952392578125,-192.16946411132812,-0.0053672026842832565,-0.25195884704589844,1.7907308340072632,-20.33446502685547,9.021228790283203,-3.55029559135437,0.022724295035004616,0.5182774751527608,0,None,None
38.89562615088653,-0.03317046910524368,155.31507873535156,-192.2137451171875,-0.005140075460076332,-0.24359185993671417,1.738565444946289,-20.5157413482666,9.017768859863281,-3.5561623573303223,0.0211647879332304,0.5182880557548958,0,None,None
38.90694007917773,-0.02435406669974327,155.52682495117188,-192.29530334472656,-0.0047546387650072575,-0.22964461147785187,1.6379808187484741,-20.800281524658203,9.012663841247559,-3.5689239501953125,0.0193083044141531,0.5167056169980719,0,None,None
38.932611746597104,-0.0189228355884552,155.649658203125,-192.3427734375,-0.0045466613955795765,-0.22189916670322418,1.5748804807662964,-20.936153411865234,9.012351036071777,-3.5725059509277344,0.018502315506339073,0.5149345771966839,0,None,None
38.94445831968915,-0.009310562163591385,155.85154724121094,-192.42095947265625,-0.00421764375641942,-0.21090257167816162,1.470802664756775,-21.115774154663086,9.015921592712402,-3.571838617324829,0.017438044771552086,0.5107416085482465,0,None,None
38.96633278380614,-0.004901418462395668,155.95465087890625,-192.4609375,-0.004055213648825884,-0.20571845769882202,1.416916847229004,-21.18843650817871,9.01845645904541,-3.5713024139404297,0.017018413171172142,0.499879955338879,0,None,None
38.97756677761208,0.005597835872322321,156.15074157714844,-192.53700256347656,-0.0037596130277961493,-0.19741295278072357,1.313700556755066,-21.293750762939453,9.02531623840332,-3.5652897357940674,0.015471463091671467,0.48897798848906837,0,None,None
39.000187695841305,0.005597835872322321,156.260986328125,-192.57972717285156,-0.003605155972763896,-0.19394321739673615,1.2533409595489502,-21.334487915039062,9.024846076965332,-3.5601820945739746,0.014669680036604404,0.48234446334986925,0,None,None
39.01078231155407,0.017548734322190285,156.44732666015625,-192.65187072753906,-0.0033387374132871628,-0.19125211238861084,1.1547608375549316,-21.37694549560547,9.012784004211426,-3.5385775566101074,0.014346026815474033,0.47029050201514644,0,None,None
39.03215087286662,0.02297762967646122,156.54969787597656,-192.69129943847656,-0.003206786932423711,-0.19088327884674072,1.0966395139694214,-21.383718490600586,8.998740196228027,-3.5182580947875977,0.012261089868843555,0.46342007521470807,0,None,None
39.043142034555785,0.03363637998700142,156.7454376220703,-192.76634216308594,-0.002990569919347763,-0.1946125626564026,0.9856351017951965,-21.367267608642578,8.953082084655762,-3.469827175140381,0.009153027087450027,0.44978625482978885,0,None,None
39.06475094135385,0.0423281267285347,156.8422088623047,-192.8031768798828,-0.0028926467057317495,-0.19879265129566193,0.9276958703994751,-21.342031478881836,8.924294471740723,-3.4352517127990723,0.008267994038760662,0.43239888362274626,0,None,None
39.07855890679639,0.05272367596626282,157.05270385742188,-192.88238525390625,-0.002681846497580409,-0.21361415088176727,0.788835346698761,-21.2465763092041,8.84977912902832,-3.356032133102417,0.0070648095570504665,0.4117293077020936,0,None,None
39.09915828972589,0.05272367596626282,157.1472930908203,-192.91769409179688,-0.0025845335330814123,-0.22195380926132202,0.7312572598457336,-21.188283920288086,8.811664581298828,-3.317962646484375,0.006800360511988401,0.4023185300792913,0,None,None
39.112822652678005,0.0733003318309784,157.26727294921875,-192.9619140625,-0.002459373325109482,-0.23452819883823395,0.6498411893844604,-21.09368133544922,8.765131950378418,-3.253286123275757,0.0063321590423583984,0.3905838303924509,0,None,None
39.1247689666925,0.0829528421163559,157.46302795410156,-193.0330047607422,-0.0022545242682099342,-0.25796258449554443,0.5172684192657471,-20.89702606201172,8.681001663208008,-3.148463487625122,0.004972071386873722,0.3718042504955158,0,None,None
39.14611111942213,0.08817869424819946,157.64886474609375,-193.09901428222656,-0.0021016693208366632,-0.2813422977924347,0.39290687441825867,-20.66066551208496,8.595226287841797,-3.0421626567840576,0.0026882076635956764,0.3432436110087248,0,None,None
39.16766816179734,0.09590969979763031,157.74154663085938,-193.1314239501953,-0.0020393370650708675,-0.2933019697666168,0.33201631903648376,-20.525997161865234,8.550780296325684,-2.9861106872558594,0.0017468213336542249,0.3320547502279486,0,None,None
39.17948511976283,0.09590969979763031,157.842041015625,-193.16610717773438,-0.0019803238101303577,-0.306552529335022,0.2667306959629059,-20.368221282958984,8.500385284423828,-2.927184581756592,0.0008583688759244978,0.32013557071746424,0,None,None
39.201552132028155,0.10440414398908615,158.02806091308594,-193.22915649414062,-0.001892738277092576,-0.3312026858329773,0.15133565664291382,-20.046810150146484,8.404300689697266,-2.8129494190216064,-0.00048676965525373816,0.2987341452525411,0,None,None
39.21188649709802,0.11052404344081879,158.205078125,-193.28756713867188,-0.001829872140660882,-0.354766845703125,0.04519391059875488,-19.705596923828125,8.309558868408203,-2.6990511417388916,-0.0014443492982536554,0.27952675678918304,0,None,None
39.222798135946505,0.11385612189769745,158.32879638671875,-193.32737731933594,-0.0017941665137186646,-0.3718286454677582,-0.03002929873764515,-19.44775390625,8.240957260131836,-2.619462728500366,-0.002005872782319784,0.2670134316512858,0,None,None
39.24855820450466,0.11709418892860413,158.4167938232422,-193.35528564453125,-0.0017739104805514216,-0.38333067297935486,-0.078277587890625,-19.25653076171875,8.191325187683105,-2.5620639324188232,-0.0022454452700912952,0.25851533646652475,0,None,None
39.260316135245375,0.12283360958099365,158.5964813232422,-193.41087341308594,-0.0017411040607839823,-0.4066762626171112,-0.17547602951526642,-18.843690872192383,8.088236808776855,-2.4407923221588135,-0.002708229934796691,0.22317021533056752,0,None,None
39.281525126541965,0.12555170059204102,158.68325805664062,-193.4370880126953,-0.001728973351418972,-0.4176933765411377,-0.22058100998401642,-18.634864807128906,8.03729248046875,-2.3823790550231934,-0.002877588151022792,0.21233339670501106,0,None,None
39.29220541368704,0.13151668012142181,158.86669921875,-193.49093627929688,-0.0017259216401726007,-0.4397275447845459,-0.3157348036766052,-18.172800064086914,7.929681301116943,-2.2567520141601562,-0.004053096752613783,0.19102985610879278,0,None,None
39.31610943179112,0.13151668012142181,158.95726013183594,-193.5167999267578,-0.0017358779441565275,-0.44943326711654663,-0.360809326171875,-17.935861587524414,7.881700038909912,-2.197733163833618,-0.004277787171304226,0.18140977243499623,0,None,None
39.32689789670985,0.1347998082637787,159.12928771972656,-193.56454467773438,-0.0017682646866887808,-0.46450749039649963,-0.44201651215553284,-17.47174835205078,7.806639194488525,-2.0881764888763428,-0.004230060614645481,0.16516897347864176,0,None,None
39.34968921437394,0.13651642203330994,159.21902465820312,-193.58872985839844,-0.001792106544598937,-0.4701218903064728,-0.482391357421875,-17.223495483398438,7.776658058166504,-2.033823251724243,-0.004126596264541149,0.1579440447362123,0,None,None
39.36092944338452,0.13993188738822937,159.38792419433594,-193.63287353515625,-0.0018585586221888661,-0.4756406843662262,-0.5528258681297302,-16.746170043945312,7.729248046875,-1.934124231338501,-0.004466824233531952,0.12025413227540224,0,None,None
39.371548447641544,0.14071714878082275,159.49288940429688,-193.6593475341797,-0.0019195175264030695,-0.47555190324783325,-0.5946349501609802,-16.443279266357422,7.706510066986084,-1.8743984699249268,-0.004782113712280989,0.10745357240843337,0,None,None
39.39595921232831,0.14204920828342438,159.6590118408203,-193.69992065429688,-0.0020343780051916838,-0.4705180525779724,-0.652984619140625,-15.957537651062012,7.680367469787598,-1.784314513206482,-0.004629039671272039,0.08986077069682956,0,None,None
39.41669798537623,0.14204920828342438,159.7344970703125,-193.7176971435547,-0.0020948408637195826,-0.46600329875946045,-0.6810911893844604,-15.734237670898438,7.671518325805664,-1.7446482181549072,-0.004686784464865923,0.08349346831583168,0,None,None
39.431225370499305,0.14296917617321014,159.84564208984375,-193.74330139160156,-0.002182540949434042,-0.4580666124820709,-0.7167662978172302,-15.403644561767578,7.662879467010498,-1.6882096529006958,-0.004164795856922865,0.07634892123275426,0,None,None
39.44285430840682,0.14354561269283295,160.0379180908203,-193.78591918945312,-0.002338256686925888,-0.4402739703655243,-0.771697998046875,-14.827868461608887,7.655983924865723,-1.5942809581756592,-0.0036090039648115635,0.0721975534320607,0,None,None
39.46650896396022,0.14354561269283295,160.11537170410156,-193.80247497558594,-0.0024014662485569715,-0.4319753050804138,-0.7913512587547302,-14.595022201538086,7.655642986297607,-1.5577834844589233,-0.003335561603307724,0.07376869581192345,0,None,None
39.479479790548794,0.14343330264091492,160.2145233154297,-193.8231201171875,-0.002484931843355298,-0.42007026076316833,-0.816070556640625,-14.296252250671387,7.656960487365723,-1.5121018886566162,-0.0031704092398285866,0.0782789635490909,0,None,None
39.49153764999937,0.14322908222675323,160.3902130126953,-193.85833740234375,-0.002632789546623826,-0.39718231558799744,-0.8546445369720459,-13.766559600830078,7.663489818572998,-1.4337693452835083,-0.00275093549862504,0.014207759948619857,0,None,None
39.512506112339906,0.14322908222675323,160.46722412109375,-193.8732452392578,-0.0026968764141201973,-0.3866296708583832,-0.8697510361671448,-13.534382820129395,7.667764186859131,-1.4001884460449219,-0.002590036252513528,0.024939135879027203,0,None,None
39.52457895677071,0.1423947662115097,160.6486053466797,-193.906982421875,-0.0028488540556281805,-0.3601968288421631,-0.9025877714157104,-12.988330841064453,7.680698871612549,-1.323346495628357,-0.0022903871722519398,0.05164261585054022,0,None,None
39.54814125120174,0.14181768894195557,160.74053955078125,-193.92340087890625,-0.002925033448264003,-0.3463793694972992,-0.9172666072845459,-12.712389945983887,7.688506126403809,-1.2855383157730103,-0.002145152073353529,0.06529040243415508,0,None,None
39.56031096156221,0.14146490395069122,160.91795349121094,-193.9538116455078,-0.0030677032191306353,-0.31955039501190186,-0.9421080946922302,-12.181750297546387,7.705351829528809,-1.21369206905365,-0.0018655776511877775,0.09152237070750556,0,None,None
39.58107723935973,0.1408800184726715,160.9939422607422,-193.9662322998047,-0.0031306457240134478,-0.30731067061424255,-0.952392578125,-11.956074714660645,7.712039470672607,-1.184164047241211,-0.0018710517324507236,0.10264401854517576,0,None,None
39.59420970908832,0.1405586302280426,161.17124938964844,-193.994140625,-0.0032685089390724897,-0.2799079716205597,-0.9727174043655396,-11.42704963684082,7.733667373657227,-1.1136441230773926,-0.0016271877102553844,0.10215283725373232,0,None,None
39.6159929985879,0.13993413746356964,161.26348876953125,-194.0081024169922,-0.0033331678714603186,-0.2669442594051361,-0.9802854657173157,-11.153977394104004,7.740394592285156,-1.0799469947814941,-0.001432557124644518,0.11421672477603127,0,None,None
39.62729293934535,0.13960717618465424,161.44297790527344,-194.0339813232422,-0.0034546279348433018,-0.24209603667259216,-0.99444580078125,-10.62553596496582,7.760012626647949,-1.0103720426559448,-0.0012465238105505705,0.13858872005754685,0,None,None
39.650788896600716,0.13926120102405548,161.53306579589844,-194.04632568359375,-0.0035130309406667948,-0.22985634207725525,-1.0013426542282104,-10.361434936523438,7.770887851715088,-0.9755256175994873,-0.001162080792710185,0.15110778269305022,0,None,None
39.66251610300969,0.13834165036678314,161.7068634033203,-194.06898498535156,-0.0036204527132213116,-0.20700253546237946,-1.013580322265625,-9.85438346862793,7.792491912841797,-0.9093748927116394,-0.001013312372379005,0.17558872023913788,0,None,None
39.68393166351598,0.1378222554922104,161.7909698486328,-194.0793914794922,-0.003670120146125555,-0.19626547396183014,-1.01910400390625,-9.610212326049805,7.803317070007324,-0.877378523349762,-0.0009506606729701161,0.18696191998675868,0,None,None
39.6956568377791,0.13676650822162628,161.88247680664062,-194.09030151367188,-0.003722877474501729,-0.1847497820854187,-1.0247496366500854,-9.345562934875488,7.815281867980957,-0.8431601524353027,-0.0008954763179644942,0.19745037249157993,0,None,None
39.71085381123703,0.1360970288515091,162.0012969970703,-194.1038360595703,-0.003790206741541624,-0.1699146032333374,-1.0315550565719604,-9.003520965576172,7.830888271331787,-0.7989304661750793,-0.0008362149819731712,0.21051858988886535,0,None,None
39.7251950482605,0.135179802775383,162.22250366210938,-194.1272735595703,-0.0039038085378706455,-0.1447795182466507,-1.040283203125,-8.37116527557373,7.855798244476318,-0.7192342877388,-0.0006941127358004451,0.23327941433420027,0,None,None
39.73907740029972,0.13424326479434967,162.32864379882812,-194.13772583007812,-0.0039528654888272285,-0.13378290832042694,-1.043182373046875,-8.069896697998047,7.867164134979248,-0.6815782189369202,-0.0006389808258973062,0.2434709596226401,0,None,None
39.76263186696451,0.13325771689414978,162.4075927734375,-194.14517211914062,-0.003987083211541176,-0.1261262595653534,-1.0449825525283813,-7.847329616546631,7.8760085105896,-0.6540865898132324,-0.000582199078053236,0.2507436804579149,0,None,None
39.77575071982574,0.1300538033246994,162.60389709472656,-194.1623992919922,-0.004070281982421875,-0.10726811736822128,-1.0489501953125,-7.299567699432373,7.901303768157959,-0.5851044058799744,-0.0005064391880296171,0.2676068354956818,0,None,None
39.79682105022948,0.1300538033246994,162.6772918701172,-194.16835021972656,-0.00410057045519352,-0.10033547133207321,-1.0496826171875,-7.097389221191406,7.907712459564209,-0.5609785914421082,-0.0004978561191819608,0.2734416590953322,0,None,None
39.818334267358296,0.1277792751789093,162.84756469726562,-194.18136596679688,-0.0041635893285274506,-0.08584864437580109,-1.0507203340530396,-6.631231784820557,7.929759502410889,-0.5028614401817322,-0.0004041528736706823,0.2862234529431283,0,None,None
39.829377499292605,0.12566351890563965,162.93516540527344,-194.18756103515625,-0.004194602835923433,-0.0786496251821518,-1.05078125,-6.394322872161865,7.941262722015381,-0.47356870770454407,-0.00037995813181623816,0.2923129848815097,0,None,None
39.84076325583737,0.12286842614412308,163.11602783203125,-194.19931030273438,-0.004255561623722315,-0.06442233920097351,-1.048980474472046,-5.912723541259766,7.964312553405762,-0.4153977036476135,-0.00032498835935257375,0.3038761791028514,0,None,None
39.86391451198142,0.11967077851295471,163.2099151611328,-194.20489501953125,-0.004285850562155247,-0.05737358704209328,-1.047027587890625,-5.666934013366699,7.975959300994873,-0.3867303729057312,-0.00029798029572702944,0.3093760103271826,0,None,None
39.8764167901827,0.11220832169055939,163.39170837402344,-194.21473693847656,-0.00434047682210803,-0.04455332085490227,-1.0399781465530396,-5.201570987701416,7.998243808746338,-0.33582404255867004,-0.0002377080818405375,0.3190774257666354,0,None,None
39.89827553357463,0.10853587090969086,163.48448181152344,-194.21932983398438,-0.004367103334516287,-0.03833102062344551,-1.033966064453125,-4.971255779266357,8.009514808654785,-0.3127874433994293,-0.00021284579997882247,0.32909006726934986,0,None,None
39.9092738161562,0.10358010232448578,163.65635681152344,-194.22711181640625,-0.0044131469912827015,-0.027525661513209343,-1.0206910371780396,-4.556429386138916,8.030211448669434,-0.2694266736507416,-0.00015867232286836952,0.3365387996636516,0,None,None
39.93113665829878,0.09976331889629364,163.74815368652344,-194.23089599609375,-0.004436645191162825,-0.022061510011553764,-1.011627197265625,-4.342622756958008,8.04109001159668,-0.2492600977420807,-0.00013017654418945312,0.34021111752656,0,None,None
39.94296529691201,0.09587723761796951,163.9331817626953,-194.2377471923828,-0.004480400122702122,-0.01172060426324606,-0.9919126629829407,-3.926117181777954,8.06248664855957,-0.20673741400241852,-7.641315460205078e-05,0.3377532958984375,0,None,None
39.96461814723443,0.09587723761796951,164.0178680419922,-194.24053955078125,-0.004498710390180349,-0.007328792475163937,-0.9826964139938354,-3.7414562702178955,8.072154998779297,-0.18678875267505646,-5.318641706253402e-05,0.340545654296875,0,None,None
39.97636282991152,0.07965023815631866,164.2000732421875,-194.2460174560547,-0.00453681917861104,0.0016870566178113222,-0.9569091200828552,-3.3638312816619873,8.092996597290039,-0.16004829108715057,-1.1315345545881428e-05,0.3460235595703125,0,None,None
39.99798746581655,0.07324407994747162,164.28770446777344,-194.2484588623047,-0.004554405342787504,0.005771509371697903,-0.9410398006439209,-3.193909168243408,8.102974891662598,-0.15125274658203125,1.6450881958007812e-05,0.3484649658203125,0,None,None
40.00920948840212,0.06919410824775696,164.47006225585938,-194.25315856933594,-0.0045886230655014515,0.013790151104331017,-0.9035642743110657,-2.864929676055908,8.123306274414062,-0.13089866936206818,7.33900087652728e-05,0.3531646728515625,0,None,None
40.03062845568638,0.06521578133106232,164.55267333984375,-194.25511169433594,-0.004602660890668631,0.017157433554530144,-0.886444091796875,-2.725067615509033,8.132410049438477,-0.12171205133199692,9.557246812619269e-05,0.3551177978515625,0,None,None
40.04198797408026,0.06294318288564682,164.73306274414062,-194.25892639160156,-0.004630889743566513,0.024069584906101227,-0.8488159775733948,-2.437866687774658,8.15187931060791,-0.09980717301368713,0.00013277529797051102,0.3589324951171875,0,None,None
40.06331869203132,0.0588500089943409,164.8190155029297,-194.2605438232422,-0.004642982501536608,0.027109019458293915,-0.831817626953125,-2.308288335800171,8.161027908325195,-0.08939392119646072,0.0001412487035850063,0.3605499267578125,0,None,None
40.084958867984824,0.0588500089943409,164.99583435058594,-194.26345825195312,-0.004665489308536053,0.03294200077652931,-0.7984009385108948,-2.054504871368408,8.17955207824707,-0.06660836189985275,0.00015892981900833547,0.36346435546875,0,None,None
40.09604375332128,0.05689016729593277,165.08657836914062,-194.26470947265625,-0.004675865173339844,0.0357082262635231,-0.7823486328125,-1.9299927949905396,8.188936233520508,-0.055056504905223846,0.00016433715063612908,0.364715576171875,0,None,None
40.10865801468026,0.05580640956759453,165.27963256835938,-194.26687622070312,-0.004695930518209934,0.04114505648612976,-0.7503966093063354,-1.6760863065719604,8.208608627319336,-0.0293629951775074,0.00016787051572464406,0.36688232421875,0,None,None
40.13090223527979,0.05468805879354477,165.37258911132812,-194.26766967773438,-0.004704780410975218,0.04354245215654373,-0.7363891005516052,-1.5580750703811646,8.217965126037598,-0.016854673624038696,0.000163521763170138,0.36767578125,0,None,None
40.14194769121241,0.05311288312077522,165.5463104248047,-194.2687530517578,-0.004719505086541176,0.047654226422309875,-0.7118836045265198,-1.344390869140625,8.235296249389648,0.005889757536351681,0.00015822886780370027,0.3687591552734375,0,None,None
40.16253474156838,0.05225623771548271,165.6330108642578,-194.26907348632812,-0.00472614262253046,0.04955301806330681,-0.700408935546875,-1.2406615018844604,8.243853569030762,0.017363157123327255,0.0001532792957732454,0.36907958984375,0,None,None
40.1840221415041,0.05084647238254547,165.81036376953125,-194.26939392089844,-0.004738922230899334,0.053166188299655914,-0.6778867840766907,-1.034271001815796,8.26121997833252,0.040201425552368164,0.0001408386160619557,0.3694000244140625,0,None,None
40.19544464244973,0.0485827773809433,165.9885711669922,-194.26918029785156,-0.004750251770019531,0.05643102154135704,-0.6567992568016052,-0.8337095379829407,8.278474807739258,0.06265522539615631,0.00012911796511616558,0.3691864013671875,0,None,None
40.20556429575663,0.047892097383737564,166.112060546875,-194.26869201660156,-0.0047579575330019,0.05858252942562103,-0.6419373154640198,-0.6990662217140198,8.29033088684082,0.07778721302747726,0.00012200832134112716,0.3686981201171875,0,None,None
40.23102820653003,0.047892097383737564,166.19970703125,-194.26821899414062,-0.004762611351907253,0.05995539575815201,-0.63262939453125,-0.60504150390625,8.298664093017578,0.08909866958856583,0.00011627197091002017,0.36822509765625,0,None,None
40.241678788210265,0.045430198311805725,166.37997436523438,-194.26687622070312,-0.004771842621266842,0.06257136166095734,-0.6139219999313354,-0.41601553559303284,8.315741539001465,0.11054686456918716,0.00010476588795427233,0.3668823778440861,0,None,None
40.26333508535754,0.045430198311805725,166.46832275390625,-194.2660369873047,-0.004775886423885822,0.06375297904014587,-0.6050109267234802,-0.32556143403053284,8.324033737182617,0.12123160064220428,0.00010284900781698525,0.3660431445685963,0,None,None
40.285099164466374,0.043138645589351654,166.64971923828125,-194.2639617919922,-0.004783935379236937,0.06602060794830322,-0.5868834853172302,-0.144622802734375,8.341012001037598,0.14143548905849457,9.085654892260209e-05,0.3639679495625469,0,None,None
40.2989990048809,0.043138645589351654,166.76577758789062,-194.2623748779297,-0.004788780119270086,0.06737980991601944,-0.5752869248390198,-0.0319824144244194,8.351750373840332,0.1549602597951889,8.67319104145281e-05,0.36238103573675967,0,None,None
40.31296958110761,0.04143030568957329,166.882568359375,-194.26060485839844,-0.0047935484908521175,0.0686570554971695,-0.56390380859375,0.07883445918560028,8.362544059753418,0.16740068793296814,8.345603419002146e-05,0.3606110164719933,0,None,None
40.32621023606043,0.039493128657341,167.07931518554688,-194.2572021484375,-0.004800224211066961,0.07056950777769089,-0.5461425185203552,0.26057958602905273,8.380565643310547,0.18845421075820923,7.183551497291774e-05,0.3572082988831865,0,None,None
40.34773292194586,0.038750406354665756,167.173828125,-194.25538635253906,-0.004803428426384926,0.07140279561281204,-0.5375366806983948,0.34528985619544983,8.38919734954834,0.19776545464992523,6.971835682634264e-05,0.3553925032245273,0,None,None
40.35873201384675,0.03793087229132652,167.35549926757812,-194.25160217285156,-0.004808616358786821,0.07289177179336548,-0.5216064453125,0.5040075778961182,8.40562915802002,0.21643374860286713,6.470680091297254e-05,0.35160832404469206,0,None,None
40.37913787260186,0.03793087229132652,167.437744140625,-194.24972534179688,-0.0048111723735928535,0.07356113195419312,-0.5138244032859802,0.57405024766922,8.413018226623535,0.22501464188098907,5.913734275964089e-05,0.3497314932458655,0,None,None
40.39034455351066,0.03561108931899071,167.6400909423828,-194.2448272705078,-0.004816551227122545,0.07497498393058777,-0.49697861075401306,0.7418206930160522,8.431153297424316,0.24400685727596283,5.546569809666835e-05,0.3448334226376565,0,None,None
40.413793233106844,0.033805862069129944,167.7298583984375,-194.24253845214844,-0.004818649031221867,0.07554871588945389,-0.489471435546875,0.8137683868408203,8.43919563293457,0.25139370560646057,5.347251862986013e-05,0.34254460460311253,0,None,None
40.42540720838588,0.03294310346245766,167.92413330078125,-194.2372283935547,-0.004822997841984034,0.07668936252593994,-0.47265616059303284,0.963897705078125,8.456466674804688,0.267782598733902,4.729747524834238e-05,0.3372345467799515,0,None,None
40.44811392005067,0.03112291544675827,168.02003479003906,-194.23446655273438,-0.004824867006391287,0.0772152841091156,-0.46435546875,1.0353063344955444,8.464978218078613,0.27505794167518616,4.847526361118071e-05,0.3344727063701063,0,None,None
40.45977891783696,0.030075864866375923,168.21237182617188,-194.2286834716797,-0.004828605335205793,0.0781715139746666,-0.4475402235984802,1.172882318496704,8.481935501098633,0.2897047996520996,4.397868906380609e-05,0.3286896180511074,0,None,None
40.48185376718175,0.028897898271679878,168.3061065673828,-194.22573852539062,-0.004830284044146538,0.07858815044164658,-0.4395447075366974,1.2374571561813354,8.49015998840332,0.2965620458126068,4.464626181288622e-05,0.3257446721494895,0,None,None
40.494211846846156,0.026682106778025627,168.4966583251953,-194.21954345703125,-0.0048332978039979935,0.07939411699771881,-0.4225768744945526,1.3625028133392334,8.506881713867188,0.3084672689437866,4.1050909203477204e-05,0.3195496046284658,0,None,None
40.514620037632994,0.025271469727158546,168.58482360839844,-194.2165985107422,-0.004834632854908705,0.07972196489572525,-0.4147644340991974,1.4177685976028442,8.514589309692383,0.3136456310749054,4.071235525771044e-05,0.3166046587494349,0,None,None
40.526368507998995,0.020924847573041916,168.77503967285156,-194.21009826660156,-0.004837417509406805,0.08039814978837967,-0.3963623046875,1.5295032262802124,8.531306266784668,0.32124072313308716,4.171371256234124e-05,0.3101044155414197,0,None,None
40.54792252543848,0.020924847573041916,168.868896484375,-194.206787109375,-0.004838599823415279,0.08070550858974457,-0.3869323134422302,1.5809147357940674,8.539485931396484,0.3253902494907379,3.941059185308404e-05,0.30679325880511166,0,None,None
40.55963785655331,0.0179092139005661,169.05860900878906,-194.20005798339844,-0.004840889014303684,0.0812724158167839,-0.3668822944164276,1.67659592628479,8.556062698364258,0.3308917284011841,4.140853707212955e-05,0.30006412571087937,0,None,None
40.58077019441407,0.014508902095258236,169.14990234375,-194.19677734375,-0.0048418426886200905,0.08151829987764359,-0.356781005859375,1.7185477018356323,8.564070701599121,0.3318418860435486,4.207134043099359e-05,0.2967834864913012,0,None,None
40.59223235480022,0.011171490885317326,169.33583068847656,-194.19007873535156,-0.004843902308493853,0.08197592943906784,-0.3340148627758026,1.793445110321045,8.580376625061035,0.3314630687236786,4.235267624608241e-05,0.29008487899865876,0,None,None
40.61360378644895,0.006864078342914581,169.4315948486328,-194.18666076660156,-0.004845008719712496,0.08220132440328598,-0.3212890625,1.8263053894042969,8.5888032913208,0.3291279077529907,4.382133556646295e-05,0.2866669107271518,0,None,None
40.626582638244145,-0.0029147323220968246,169.65786743164062,-194.17874145507812,-0.004846877884119749,0.08264528214931488,-0.2851867079734802,1.8826422691345215,8.608777046203613,0.31552088260650635,4.983901817467995e-05,0.2787476003574568,0,None,None
40.65084036241751,-0.0029147323220968246,169.7520294189453,-194.17552185058594,-0.004847602918744087,0.08280237764120102,-0.26934814453125,1.8974943161010742,8.617020606994629,0.3104284107685089,4.870414704782888e-05,0.2755279963532873,0,None,None
40.661951406742446,-0.01223740167915821,169.93736267089844,-194.16946411132812,-0.004848976153880358,0.083082415163517,-0.23483280837535858,1.9096070528030396,8.633259773254395,0.2919013202190399,5.397319546318613e-05,0.2694702498370069,0,None,None
40.68288533843588,-0.01223740167915821,170.02862548828125,-194.16659545898438,-0.004849433898925781,0.0831848680973053,-0.21710205078125,1.9077569246292114,8.641191482543945,0.2841210663318634,5.227565634413622e-05,0.2666015978697869,0,None,None
40.697967440704815,-0.015217123553156853,170.1591033935547,-194.1626739501953,-0.004849815275520086,0.08331464231014252,-0.1899719089269638,1.8961001634597778,8.652485847473145,0.27163583040237427,5.206584683037363e-05,0.2626800896087542,0,None,None
40.71042670391034,-0.01935938186943531,170.3627166748047,-194.15684509277344,-0.004850082099437714,0.08347173780202866,-0.1508178859949112,1.8613299131393433,8.66999340057373,0.2516433596611023,5.121230788063258e-05,0.2568512330015269,0,None,None
40.7321556097595,-0.01935938186943531,170.45542907714844,-194.154296875,-0.004850082099437714,0.08353321254253387,-0.1336670219898224,1.8394137620925903,8.677923202514648,0.24311155080795288,4.7378540330100805e-05,0.2543030155959629,0,None,None
40.743473985116,-0.02299177274107933,170.6437530517578,-194.14938354492188,-0.004849968012422323,0.0836288332939148,-0.0996398776769638,1.784245252609253,8.693939208984375,0.22378285229206085,4.064082895638421e-05,0.24938968624837313,0,None,None
40.76424442033749,-0.02299177274107933,170.73434448242188,-194.14718627929688,-0.004849662538617849,0.0836629793047905,-0.0838623195886612,1.753139853477478,8.701607704162598,0.21493972837924957,3.7646292184945196e-05,0.24719242095946972,0,None,None
40.77619881730061,-0.02598465420305729,170.934326171875,-194.14260864257812,-0.004849395714700222,0.08369030058383942,-0.0496215783059597,1.674513578414917,8.718427658081055,0.19337138533592224,3.0751227313885465e-05,0.24261477680326063,0,None,None
40.79796460538637,-0.02598465420305729,171.02825927734375,-194.14059448242188,-0.004849014338105917,0.08371762186288834,-0.034454345703125,1.633609652519226,8.726289749145508,0.18382011353969574,2.451419823046308e-05,0.24060061690409174,0,None,None
40.813153271446936,-0.028472900390625,171.16091918945312,-194.1379852294922,-0.004848632495850325,0.08371762186288834,-0.012115478515625,1.5709400177001953,8.737323760986328,0.1683616042137146,2.0956993466825224e-05,0.23799136431391096,0,None,None
40.82728478114586,-0.02948857843875885,171.37332153320312,-194.1341552734375,-0.004847984295338392,0.08369030058383942,0.019732901826500893,1.4621164798736572,8.754889488220215,0.14510774612426758,1.2969970157428179e-05,0.23416140877126762,0,None,None
40.85084144573193,-0.03023141622543335,171.49081420898438,-194.1322784423828,-0.004847793374210596,0.0836629793047905,0.036795634776353836,1.3977303504943848,8.764538764953613,0.13172635436058044,7.91072852734942e-06,0.23228457797366683,0,None,None
40.86434316996019,-0.031169889494776726,171.6092529296875,-194.1305694580078,-0.004847259260714054,0.0836288332939148,0.05338188633322716,1.3300366401672363,8.774211883544922,0.11796274781227112,1.4734267779203947e-06,0.2305755938364026,0,None,None
40.876009024563245,-0.03154014050960541,171.8155975341797,-194.1279296875,-0.004846611060202122,0.08353321254253387,0.07998274266719818,1.20671546459198,8.79096794128418,0.09459999948740005,-5.655288532580016e-06,0.22793582370281304,0,None,None
40.89907172869425,-0.03179012984037399,171.9144744873047,-194.12684631347656,-0.0048464201390743256,0.08349905908107758,0.09185754507780075,1.1457037925720215,8.7989501953125,0.08359755575656891,-1.1286735571047757e-05,0.226852449835479,0,None,None
40.91023036639672,-0.03251313045620918,172.10528564453125,-194.12509155273438,-0.004845809657126665,0.08339660614728928,0.1133069321513176,1.0251741409301758,8.814264297485352,0.06229196861386299,-1.4142990039545111e-05,0.2250976893493231,0,None,None
40.93177831068169,-0.03249596059322357,172.20266723632812,-194.1243438720703,-0.004845619201660156,0.08334196358919144,0.12373697757720947,0.9623019099235535,8.822035789489746,0.05139107257127762,-1.9316672478453256e-05,0.22435000879556913,0,None,None
40.94340272608679,-0.033148184418678284,172.40306091308594,-194.12319946289062,-0.0048448177985847,0.0831848680973053,0.14423754811286926,0.8303002715110779,8.837902069091797,0.02838478796184063,-2.3665426851948723e-05,0.22320559978615248,0,None,None
40.96592833462637,-0.033624548465013504,172.50442504882812,-194.122802734375,-0.004844474606215954,0.08312340080738068,0.15410690009593964,0.7622929215431213,8.845870971679688,0.01657908968627453,-2.3069380404194817e-05,0.222808871329963,0,None,None
40.976600464317016,-0.0344880074262619,172.69932556152344,-194.1224365234375,-0.004843940492719412,0.08295947313308716,0.17218895256519318,0.6293132305145264,8.861077308654785,-0.006541501265019178,-2.7151107133249752e-05,0.2224426604475147,0,None,None
41.00186173606198,-0.0344880074262619,172.82281494140625,-194.1224822998047,-0.004843635484576225,0.08283653110265732,0.183541938662529,0.5435155630111694,8.87064266204834,-0.021142765879631042,-3.0269622584455647e-05,0.22248843680781083,0,None,None
