time,Steering Angle,X Position,Y Position,Z Position, Pitch, Roll, Yaw, X velocity, Y velocity, Z velocity, Lateral Position,Lap Count, Lane Invasion, Collision Sensor
100.94220574828796,0.0006977303419262171,128.19151306152344,-191.6533203125,-0.002234573243185878,-0.09386728703975677,-0.15484619140625,0.3427636921405792,2.328888415448205e-09,3.301128572275047e-06,-0.00012537151633296162,0.871429922818129,0,None,None
100.94220574828796,0.0006977303419262171,128.19151306152344,-191.6533203125,-0.002215499756857753,-0.09386728703975677,-0.15484619140625,0.3427636921405792,-1.6910198041841795e-07,3.974104856752092e-06,0.0006861647707410157,0.871429922818129,0,None,None
100.9810274883639,0.0006977303419262171,128.19151306152344,-191.6533203125,-0.0022364044561982155,-0.09386728703975677,-0.15484619140625,0.3427636921405792,-2.0300619496538275e-07,3.724447424247046e-06,0.0008512205677106977,0.871429922818129,0,None,None
101.01721003442071,0.0006977303419262171,128.19151306152344,-191.6533203125,-0.0022234725765883923,-0.09386728703975677,-0.15484619140625,0.3427636921405792,-1.5050754598178173e-07,3.7704337501054397e-06,0.0006441848818212748,0.871429922818129,0,None,None
101.05567084788345,0.0006977303419262171,128.19151306152344,-191.6533203125,-0.00222434988245368,-0.09386728703975677,-0.15484619140625,0.3427636921405792,-2.473185212181761e-08,3.582402086976799e-06,-0.00035288205253891647,0.871429922818129,0,None,None
101.0811265965458,0.0006977303419262171,128.19151306152344,-191.6533203125,-0.0022226714063435793,-0.09386728703975677,-0.15484619140625,0.3427636921405792,-7.694179515738142e-08,3.372048922756221e-06,-4.189824903733097e-05,0.871429922818129,0,None,None
101.09212466864847,0.0006977303419262171,128.19151306152344,-191.6533203125,-0.0022176741622388363,-0.09386728703975677,-0.15484619140625,0.3427636921405792,-6.82513885408298e-08,2.619023462102632e-06,6.3593379309168085e-06,0.871429922818129,0,None,None
101.1160139401909,0.0006977303419262171,128.19151306152344,-191.6533203125,-0.0022176741622388363,-0.09386728703975677,-0.15484619140625,0.3427636921405792,-8.358852454648513e-08,3.1820520689507248e-06,6.296065839705989e-05,0.871429922818129,0,None,None
101.12736798799597,0.0006977303419262171,128.19151306152344,-191.6533203125,-0.0022148513235151768,-0.09386728703975677,-0.15484619140625,0.3427636921405792,-1.041439787741183e-07,3.288402240286814e-06,0.00017049523012246937,0.871429922818129,0,None,None
101.14156798063777,0.0006977303419262171,128.19151306152344,-191.6533203125,-0.0022206115536391735,-0.09386728703975677,-0.15484619140625,0.3427636921405792,-1.2651899794491328e-07,3.3627659377089003e-06,0.0003210307622794062,0.871429922818129,0,None,None
101.16631956840865,0.0006977303419262171,128.19151306152344,-191.6533203125,-0.0022267531603574753,-0.09386728703975677,-0.15484619140625,0.3427636921405792,1.4184042385068096e-08,3.383951252544648e-06,-0.0004316121630836278,0.871429922818129,0,None,None
101.17781125637703,0.0006977303419262171,128.19151306152344,-191.6533203125,-0.0022239303216338158,-0.09386728703975677,-0.15484619140625,0.3427636921405792,-1.05501968050703e-07,3.7140375752642285e-06,0.00023601690190844238,0.871429922818129,0,None,None
101.19317800435238,0.0006977303419262171,128.19151306152344,-191.6533203125,-0.002236595144495368,-0.09386728703975677,-0.1548461765050888,0.3426564335823059,-6.856047463088544e-08,3.2119849038281245e-06,0.0001558768271934241,0.871429922818129,0,None,None
101.21663031890057,0.0006977303419262171,128.19151306152344,-191.6533203125,-0.0022315597161650658,-0.09386728703975677,-0.1548461765050888,0.3426564335823059,-1.273740792839817e-07,3.8132652662170585e-06,0.00043579033808782697,0.871429922818129,0,None,None
101.22996554686688,0.0006977303419262171,128.19151306152344,-191.6533203125,-0.0022288893815129995,-0.09386728703975677,-0.1548461765050888,0.3426564335823059,-1.3986253577513708e-07,3.4608876831043744e-06,0.000492280232720077,0.871429922818129,0,None,None
101.24078889912926,0.0006977303419262171,128.19151306152344,-191.6533203125,-0.0022273254580795765,-0.09386728703975677,-0.1548461765050888,0.3426564335823059,-7.734517737389979e-08,3.738212399184704e-06,0.00012365657312329859,0.871429922818129,0,None,None
101.26430573384278,0.0006977303419262171,128.19151306152344,-191.6533203125,-0.00222434988245368,-0.09386728703975677,-0.1548461765050888,0.3426564335823059,-5.95295546190755e-08,3.461753976807813e-06,0.00024979267618618906,0.871429922818129,0,None,None
101.2753980809357,0.0006977303419262171,128.19151306152344,-191.6533203125,-0.002220764057710767,-0.09386728703975677,-0.1548461765050888,0.3426564335823059,-7.98329722329072e-08,3.746386937564239e-06,6.277920329011977e-05,0.871429922818129,0,None,None
101.29965142044239,0.0006977303419262171,128.19151306152344,-191.6533203125,-0.002220764057710767,-0.09386728703975677,-0.1548461765050888,0.3426564335823059,-5.472683994867111e-08,3.2082268717203988e-06,-6.45865366095677e-05,0.871429922818129,0,None,None
101.31107853888534,0.0006977303419262171,128.19151306152344,-191.6533203125,-0.0022186278365552425,-0.09386728703975677,-0.1548461765050888,0.3426564335823059,-1.4898076017288986e-07,3.6954879760742188e-06,0.00018014638044405729,0.871429922818129,0,None,None
101.32569590001367,0.0006977303419262171,128.19151306152344,-191.6533203125,-0.002224883995950222,-0.09386728703975677,-0.1548461765050888,0.3426564335823059,-1.4636432865700044e-07,3.506415396259399e-06,0.0004505620163399726,0.871429922818129,0,None,None
101.34923806111328,0.0006977303419262171,128.19151306152344,-191.6533203125,-0.0022267913445830345,-0.09386728703975677,-0.1548461765050888,0.3426564335823059,-3.666325909534862e-08,3.2321083835995523e-06,-0.00014543782162945718,0.871429922818129,0,None,None
101.36178479227237,0.0006977303419262171,128.19151306152344,-191.6533203125,-0.0022235489450395107,-0.09386728703975677,-0.1548461765050888,0.3426564335823059,-1.3225071882061457e-07,3.4501938444009284e-06,0.00033885028096847236,0.871429922818129,0,None,None
101.38369031413458,0.0006977303419262171,128.19151306152344,-191.6533203125,-0.002219619695097208,-0.09386728703975677,-0.1548461765050888,0.3426564335823059,-1.8407939705866738e-07,3.779476855925168e-06,0.0003486535861156881,0.871429922818129,0,None,None
101.39642016752623,0.0006977303419262171,128.19151306152344,-191.6533203125,-0.0022220611572265625,-0.09386728703975677,-0.1548461765050888,0.3426564335823059,-8.549540808644451e-08,3.5469208796712337e-06,-0.0001842138881329447,0.871429922818129,0,None,None
101.40902429795824,0.0006977303419262171,128.19151306152344,-191.6533203125,-0.002228393452242017,-0.09386728703975677,-0.1548461765050888,0.3426564335823059,3.462948328092352e-08,3.2669024676579284e-06,-0.00033310867729596794,0.871429922818129,0,None,None
101.43373068119399,0.0006977303419262171,128.19151306152344,-191.6533203125,-0.0022250746842473745,-0.09386728703975677,-0.1548461765050888,0.3426564335823059,-1.214671669913514e-07,3.436114639043808e-06,0.0002852307807188481,0.871429922818129,0,None,None
101.44664400140755,0.0006977303419262171,128.19151306152344,-191.6533203125,-0.0022274779621511698,-0.09386728703975677,-0.1548461765050888,0.3426564335823059,5.375477396540873e-09,3.372663513800944e-06,-0.00017900674720294774,0.871429922818129,0,None,None
101.45868008653633,0.0006977303419262171,128.19151306152344,-191.6533203125,-0.0022232055198401213,-0.09386728703975677,-0.1548461765050888,0.3426564335823059,-2.1266285443743982e-07,3.6676412946690107e-06,0.00027706706896424294,0.871429922818129,0,None,None
101.48078292119317,0.0006977303419262171,128.19151306152344,-191.6533203125,-0.002219505375251174,-0.09386728703975677,-0.1548461765050888,0.3426564335823059,-1.4647258694822085e-07,3.925799319404177e-06,0.00032735822605900466,0.871429922818129,0,None,None
101.49303795746528,0.0006977303419262171,128.19151306152344,-191.6533203125,-0.002219505375251174,-0.09386728703975677,-0.1548461765050888,0.3426564335823059,0.0,0.0,0.0,0.871429922818129,0,None,None
101.51682740240358,0.0006977303419262171,128.19151306152344,-191.6533203125,-0.002221069298684597,-0.09386728703975677,-0.1548461765050888,0.3426564335823059,-6.197951307740368e-08,3.258255219407147e-06,-9.854257950792089e-05,0.871429922818129,0,None,None
101.52791569172405,0.0006977303419262171,128.19151306152344,-191.6533203125,-0.0022191619500517845,-0.09386728703975677,-0.1548461765050888,0.3426564335823059,-7.18084578466005e-08,3.5938223845732864e-06,-6.846395990578458e-05,0.871429922818129,0,None,None
101.55217611021362,0.0006977303419262171,128.19151306152344,-191.6533203125,-0.0022220611572265625,-0.09386728703975677,-0.1548461765050888,0.3426564335823059,-7.936032275779326e-09,3.435083044678322e-06,-0.00015821763372514397,0.871429922818129,0,None,None
101.56397426384501,0.0006977303419262171,128.19151306152344,-191.6533203125,-0.0022220611572265625,-0.09386728703975677,-0.1548461765050888,0.3426564335823059,-7.888185393767344e-08,3.6389403703651624e-06,-1.389030899190402e-07,0.871429922818129,0,None,None
101.57582650589757,0.0006977303419262171,128.19151306152344,-191.6533203125,-0.002220001071691513,-0.09386728703975677,-0.1548461765050888,0.3426564335823059,-1.6022008253457898e-07,3.6526027997751953e-06,0.00019061213242821395,0.871429922818129,0,None,None
101.59816591604613,0.0006977303419262171,128.19151306152344,-191.6533203125,-0.002218818524852395,-0.09386728703975677,-0.1548461765050888,0.3426564335823059,-1.4406512605091848e-07,3.5771865896094823e-06,9.953293920261785e-05,0.871429922818129,0,None,None
101.60936468536966,0.0006977303419262171,128.19151306152344,-191.6533203125,-0.0022267913445830345,-0.09386728703975677,-0.1548461765050888,0.3426564335823059,4.0348385965671696e-08,3.307107817818178e-06,-0.0006376986857503653,0.871429922818129,0,None,None
101.63453234056942,0.0006977303419262171,128.19151306152344,-191.6533203125,-0.002224578754976392,-0.09386728703975677,-0.1548461765050888,0.3426564335823059,-1.4904827594364178e-07,3.6307865229900926e-06,0.00018746535351965576,0.871429922818129,0,None,None
101.64529099944048,0.0006977303419262171,128.19151306152344,-191.6533203125,-0.002221450675278902,-0.09386728703975677,-0.1548461765050888,0.3426564335823059,-4.683213816747411e-08,3.61076308763586e-06,4.9384547310182825e-05,0.871429922818129,0,None,None
101.66856844699942,0.0006977303419262171,128.19151306152344,-191.6533203125,-0.002221450675278902,-0.09386728703975677,-0.1548461765050888,0.3426564335823059,-7.880618824174235e-08,3.2430280043627135e-06,5.359178430808242e-06,0.871429922818129,0,None,None
101.68061627424322,0.0006977303419262171,128.19151306152344,-191.6533203125,-0.002221450675278902,-0.09386728703975677,-0.1548461765050888,0.3426564335823059,-1.0487914181567248e-07,3.5146879326930502e-06,-8.302138303406537e-05,0.871429922818129,0,None,None
101.69196030753665,0.0006977303419262171,128.19151306152344,-191.6533203125,-0.0022182082757353783,-0.09386728703975677,-0.1548461765050888,0.3426564335823059,-1.2196193210911588e-07,3.3713247375999345e-06,0.0002105677267536521,0.871429922818129,0,None,None
101.71835336065851,0.0006977303419262171,128.19151306152344,-191.6533203125,-0.0022366333287209272,-0.09386728703975677,-0.1548461765050888,0.3426564335823059,1.352064913362483e-07,3.069098966079764e-06,-0.0011282513150945306,0.871429922818129,0,None,None
101.72986600152217,0.0006977303419262171,128.19151306152344,-191.6533203125,-0.002229347126558423,-0.09386728703975677,-0.1548461765050888,0.3426564335823059,-9.894196040249881e-08,3.581619694159599e-06,0.0004129064327571541,0.871429922818129,0,None,None
101.75214391364716,0.0006977303419262171,128.19151306152344,-191.6533203125,-0.002227783203125,-0.09386728703975677,-0.1548461765050888,0.3426564335823059,-8.843024090765539e-08,3.3402627650502836e-06,0.0001308612700086087,0.871429922818129,0,None,None
101.7643121292349,0.0006977303419262171,128.19151306152344,-191.6533203125,-0.002227783203125,-0.09386728703975677,-0.1548461765050888,0.3426564335823059,-1.0309216946779998e-07,3.5473656225804007e-06,-2.902947562688496e-05,0.871429922818129,0,None,None
101.77631791564636,0.0006977303419262171,128.19151306152344,-191.6533203125,-0.002227783203125,-0.09386728703975677,-0.1548461765050888,0.3426564335823059,-3.7774441352667054e-08,3.4201516427856404e-06,7.035145245026797e-05,0.871429922818129,0,None,None
101.79875346994959,0.0006977303419262171,128.19151306152344,-191.6533203125,-0.0022232055198401213,-0.09386728703975677,-0.1548461765050888,0.3426564335823059,-1.8221267339413316e-07,3.7949600937281502e-06,0.0003522913029883057,0.871429922818129,0,None,None
101.8106945368927,0.0006977303419262171,128.19151306152344,-191.6533203125,-0.0022209929302334785,-0.09386728703975677,-0.1548461765050888,0.3426564335823059,-1.1544150169129352e-07,3.6022113363287644e-06,0.00020935197244398296,0.871429922818129,0,None,None
101.83278477261774,0.0006977303419262171,128.19151306152344,-191.6533203125,-0.0022188567090779543,-0.09386728703975677,-0.1548461765050888,0.3426564335823059,-1.1656607767918103e-07,3.860178367176559e-06,0.00018445141904521734,0.871429922818129,0,None,None
101.84520562062971,0.0006977303419262171,128.19151306152344,-191.6533203125,-0.002221336355432868,-0.09386728703975677,-0.1548461765050888,0.3426564335823059,-4.236586192973846e-08,3.6260275919630658e-06,-0.00019247778982389718,0.871429922818129,0,None,None
101.86924760206603,0.0006977303419262171,128.19151306152344,-191.6533203125,-0.002222862094640732,-0.09386728703975677,-0.1548461765050888,0.3426564335823059,-1.0851770326780752e-07,3.8087996472313534e-06,0.00017902557738125324,0.871429922818129,0,None,None
101.88051925017498,0.0006977303419262171,128.19151306152344,-191.6533203125,-0.0022211456671357155,-0.09386728703975677,-0.1548461765050888,0.3426564335823059,-1.0368705005703305e-07,3.4094205147994217e-06,0.00014831275620963424,0.871429922818129,0,None,None
101.89252873393707,0.0006977303419262171,128.19151306152344,-191.6533203125,-0.002222251845523715,-0.09386728703975677,-0.1548461765050888,0.3426564335823059,-7.018737591124591e-08,3.748245035239961e-06,-3.077055953326635e-05,0.871429922818129,0,None,None
101.91783519624732,0.0006977303419262171,128.19151306152344,-191.6533203125,-0.002222251845523715,-0.09386728703975677,-0.1548461765050888,0.3426564335823059,0.0,0.0,0.0,0.871429922818129,0,None,None
101.9326186242979,0.0006977303419262171,128.19151306152344,-191.6533203125,-0.0022323227021843195,-0.09386728703975677,-0.1548461765050888,0.3426564335823059,-9.352224772385398e-09,2.9632262794621056e-06,-0.000454260763945058,0.871429922818129,0,None,None
101.9441110517364,0.0006977303419262171,128.19151306152344,-191.6533203125,-0.0022213745396584272,-0.09386728703975677,-0.1548461765050888,0.3426564335823059,-3.113353130856922e-08,3.5995244616060518e-06,0.0003467570059001446,0.871429922818129,0,None,None
101.9681596995797,0.0006977303419262171,128.19151306152344,-191.6533203125,-0.0022179412189871073,-0.09386728703975677,-0.1548461765050888,0.3426564335823059,-2.5721382357346556e-08,3.575377604647656e-06,0.00027320097433403134,0.871429922818129,0,None,None
101.9789038344752,0.0006977303419262171,128.19151306152344,-191.6533203125,-0.002211685059592128,-0.09386728703975677,-0.1548461765050888,0.3426564335823059,-9.222188879220994e-08,3.7558422718575457e-06,0.0005605053738690913,0.871429922818129,0,None,None
101.99218236352317,0.0006977303419262171,128.19151306152344,-191.6533203125,-0.002209052909165621,-0.09386728703975677,-0.1548461765050888,0.3426564335823059,-8.222472303032191e-08,3.724919906744617e-06,0.00045110590872354805,0.871429922818129,0,None,None
102.01344049233012,0.0006977303419262171,128.19151306152344,-191.6533203125,-0.0022033308632671833,-0.09386728703975677,-0.1548461765050888,0.3426564335823059,-1.1950149314543523e-07,3.80568667424086e-06,0.0005328295519575477,0.871429922818129,0,None,None
102.02563084545545,0.0006977303419262171,128.19151306152344,-191.6533203125,-0.002200012095272541,-0.09386728703975677,-0.1548461765050888,0.3426564335823059,-2.564117380643438e-07,3.7244194572849665e-06,0.00029538667877204716,0.871429922818129,0,None,None
102.04764638911001,0.0006977303419262171,128.19151306152344,-191.6533203125,-0.0021974563132971525,-0.09386728703975677,-0.1548461765050888,0.3426564335823059,-2.5224872501894424e-07,3.7122913454368245e-06,0.00021991852554492652,0.871429922818129,0,None,None
102.05880332249217,0.0006977303419262171,128.19151306152344,-191.6533203125,-0.002193794120103121,-0.09386728703975677,-0.1548461765050888,0.3426564335823059,-8.180446542382924e-08,3.723411282408051e-06,0.00015592748241033405,0.871429922818129,0,None,None
102.08121548662893,0.0006977303419262171,128.19151306152344,-191.6533203125,-0.002193794120103121,-0.09386728703975677,-0.1548461765050888,0.3426564335823059,-6.55587015785386e-08,3.6850221931672422e-06,3.074982305406593e-05,0.871429922818129,0,None,None
102.09303022432141,0.0006977303419262171,128.19151306152344,-191.6533203125,-0.0021913908421993256,-0.09386728703975677,-0.1548461765050888,0.3426564335823059,-1.644305314130179e-07,3.558366870493046e-06,0.0002915613877121359,0.871429922818129,0,None,None
102.1147445270326,0.0006977303419262171,128.19151306152344,-191.6533203125,-0.0021913908421993256,-0.09386728703975677,-0.1548461765050888,0.3426564335823059,-5.8604637587222896e-08,3.6842072859144537e-06,-5.671065810020082e-05,0.871429922818129,0,None,None
102.12590556847863,0.0006977303419262171,128.19151306152344,-191.6533203125,-0.0021941757295280695,-0.09386728703975677,-0.1548461765050888,0.3426564335823059,-2.734537574156093e-08,3.1794397727935575e-06,-0.00019649798923637718,0.871429922818129,0,None,None
102.15169048006646,0.0006977303419262171,128.19151306152344,-191.6533203125,-0.002204246586188674,-0.09386728703975677,-0.1548461765050888,0.3426564335823059,7.101043308921362e-08,3.338348960824078e-06,-0.0007000254699960351,0.871429922818129,0,None,None
102.16317592351697,0.0006977303419262171,128.19151306152344,-191.6533203125,-0.0022001266479492188,-0.09386728703975677,-0.1548461765050888,0.3426564335823059,-1.380051202204413e-07,3.911342901119497e-06,0.000345524400472641,0.871429922818129,0,None,None
102.18499937071465,0.0006977303419262171,128.19151306152344,-191.6533203125,-0.0022001266479492188,-0.09386728703975677,-0.1548461765050888,0.3426564335823059,-5.38170574770902e-08,3.277151790825883e-06,-7.344230834860355e-05,0.871429922818129,0,None,None
102.19670038833283,0.0006977303419262171,128.19151306152344,-191.6533203125,-0.0022008514497429132,-0.09386728703975677,-0.1548461765050888,0.3426564335823059,-1.310917951968804e-07,3.4725433124549454e-06,8.90804803930223e-05,0.871429922818129,0,None,None
102.21854586503468,0.0006977303419262171,128.19151306152344,-191.6533203125,-0.0021994782146066427,-0.09386728703975677,-0.1548461765050888,0.3426564335823059,-1.4563323702532216e-07,3.5212142392992973e-06,0.00012248693383298814,0.871429922818129,0,None,None
102.23254363588057,0.0006977303419262171,128.19151306152344,-191.6533203125,-0.002210426377132535,-0.09386728703975677,-0.1548461765050888,0.3426564335823059,7.083581010647322e-08,3.3414642075513257e-06,-0.0007507410482503474,0.871429922818129,0,None,None
102.24401396582834,0.0006977303419262171,128.19151306152344,-191.6533203125,-0.002210426377132535,-0.09386728703975677,-0.1548461765050888,0.3426564335823059,-1.4220306354673085e-07,3.479267434158828e-06,-5.152696758159436e-05,0.871429922818129,0,None,None
102.26897589094006,0.0006977303419262171,128.19151306152344,-191.6533203125,-0.0022158431820571423,-0.09386728703975677,-0.1548461765050888,0.3426564335823059,1.171487351570022e-08,3.5492585084284656e-06,-0.0004001756606157869,0.871429922818129,0,None,None
102.2829696869012,0.0006977303419262171,128.19151306152344,-191.6533203125,-0.002224502619355917,-0.09386728703975677,-0.1548461765050888,0.3426564335823059,5.203531827646657e-08,3.4024053547909716e-06,-0.0005928192986175418,0.871429922818129,0,None,None
102.29562778002582,0.0006977303419262171,128.19151306152344,-191.6533203125,-0.002224235562607646,-0.09386728703975677,-0.1548461765050888,0.3426564335823059,-1.1976167968441587e-07,3.44286672770977e-06,0.00015317238285206258,0.871429922818129,0,None,None
102.31796891032718,0.0006977303419262171,128.19151306152344,-191.6533203125,-0.0022199631202965975,-0.09386728703975677,-0.1548461765050888,0.3426564335823059,-1.2823439021758531e-07,3.5089603898086352e-06,0.0003882351447828114,0.871429922818129,0,None,None
102.3314764702227,0.0006977303419262171,128.19151306152344,-191.6533203125,-0.0022199631202965975,-0.09386728703975677,-0.1548461765050888,0.3426564335823059,-7.557624570608823e-08,2.4632363420096226e-06,-3.401212234166451e-05,0.871429922818129,0,None,None
102.34207582077943,0.0006977303419262171,128.19151306152344,-191.6533203125,-0.0022063064388930798,-0.09386728703975677,-0.1548461765050888,0.3426564335823059,-1.5020661692233261e-07,3.4778588542394573e-06,0.0004982315003871918,0.871429922818129,0,None,None
102.36739293276332,0.0006977303419262171,128.19151306152344,-191.6533203125,-0.0022122955415397882,-0.09386728703975677,-0.1548461765050888,0.3426564335823059,8.021597608376396e-09,3.015017000507214e-06,-0.00040832310332916677,0.871429922818129,0,None,None
102.37910472298972,0.0006977303419262171,128.19151306152344,-191.6533203125,-0.0022045134101063013,-0.09386728703975677,-0.1548461765050888,0.3426564335823059,-1.2765289625349396e-07,3.438838575675618e-06,0.0003034888068214059,0.871429922818129,0,None,None
102.39070402341895,0.0006977303419262171,128.19151306152344,-191.6533203125,-0.002214050153270364,-0.09386728703975677,-0.1548461765050888,0.3426564335823059,7.993017447915918e-08,3.071157152589876e-06,-0.0006254669860936701,0.871429922818129,0,None,None
102.41648114542477,0.0006977303419262171,128.19151306152344,-191.6533203125,-0.0022085951641201973,-0.09386728703975677,-0.1548461765050888,0.3426564335823059,-1.9938859452395263e-07,3.832089532807004e-06,0.0004712188383564353,0.871429922818129,0,None,None
102.43136960151605,0.0006977303419262171,128.19151306152344,-191.6533203125,-0.0022189330775290728,-0.09386728703975677,-0.1548461765050888,0.3426564335823059,4.761852068213557e-08,2.93185917144001e-06,-0.0006676660268567502,0.871429922818129,0,None,None
102.44360485556535,0.0006977303419262171,128.19151306152344,-191.6533203125,-0.0022098158951848745,-0.09386728703975677,-0.1548461765050888,0.3426564335823059,-1.8142686997180135e-07,4.097137207281776e-06,0.0005805130349472165,0.871429922818129,0,None,None
102.4671034978237,0.0006977303419262171,128.19151306152344,-191.6533203125,-0.0022109602577984333,-0.09386728703975677,-0.1548461765050888,0.3426564335823059,-6.107729433324494e-08,3.785262833844172e-06,-8.761716890148818e-05,0.871429922818129,0,None,None
102.47797741624527,0.0006977303419262171,128.19151306152344,-191.6533203125,-0.0022029494866728783,-0.09386728703975677,-0.1548461765050888,0.3426564335823059,-9.33709074502076e-08,3.86902820537216e-06,0.00025388854555785656,0.871429922818129,0,None,None
102.50003097648732,0.0006977303419262171,128.19151306152344,-191.6533203125,-0.002198829548433423,-0.09386728703975677,-0.1548461765050888,0.3426564335823059,-1.6418401571627328e-07,3.6761630326509476e-06,0.00036874707438983023,0.871429922818129,0,None,None
102.51551617844962,0.0006977303419262171,128.19151306152344,-191.6533203125,-0.0022155761253088713,-0.09386728703975677,-0.1548461765050888,0.3426564335823059,1.420918778194391e-07,3.0645121569250477e-06,-0.001033190288580954,0.871429922818129,0,None,None
102.52943161758594,0.0006977303419262171,128.19151306152344,-191.6533203125,-0.0022164152469486,-0.09386728703975677,-0.1548461765050888,0.3426564335823059,-9.709444981353954e-08,3.5721830045076786e-06,0.0003934667620342225,0.871429922818129,0,None,None
102.55204747687094,0.0006977303419262171,128.19151306152344,-191.6533203125,-0.0022124862298369408,-0.09386728703975677,-0.1548461765050888,0.3426564335823059,-1.367466779811366e-07,3.6844867281615734e-06,0.00033203171915374696,0.871429922818129,0,None,None
102.56396645004861,0.0006977303419262171,128.19151306152344,-191.6533203125,-0.0022108841221779585,-0.09386728703975677,-0.1548461765050888,0.3426564335823059,-1.6242847067360344e-08,3.383981493243482e-06,0.00012527794751804322,0.871429922818129,0,None,None
102.57823855592869,0.0006977303419262171,128.19151306152344,-191.6533203125,-0.00221424107439816,-0.09386728703975677,-0.1548461765050888,0.3426564335823059,-1.5204132353119348e-07,3.343673824929283e-06,0.0004427375679370016,0.871429922818129,0,None,None
102.6010116811376,0.0006977303419262171,128.19151306152344,-191.6533203125,-0.0022125625982880592,-0.09386728703975677,-0.1548461765050888,0.3426564335823059,-1.6810954406309975e-08,3.4289084851479856e-06,0.00013362725439947098,0.871429922818129,0,None,None
102.61222179676406,0.0006977303419262171,128.19151306152344,-191.6533203125,-0.0022069166880100965,-0.09386728703975677,-0.1548461765050888,0.3426564335823059,-1.2411561556291417e-07,3.710919827426551e-06,0.00020057853544130921,0.871429922818129,0,None,None
102.63408914091997,0.0006977303419262171,128.19151306152344,-191.6533203125,-0.0022029494866728783,-0.09386728703975677,-0.1548461765050888,0.3426564335823059,-1.637119595443437e-07,3.809574991464615e-06,0.0003618566261138767,0.871429922818129,0,None,None
102.64596701017581,0.0006977303419262171,128.19151306152344,-191.6533203125,-0.002200431888923049,-0.09386728703975677,-0.1548461765050888,0.3426564335823059,-1.0492861690636346e-07,3.491714551273617e-06,0.0002471165207680315,0.871429922818129,0,None,None
102.66856284509413,0.0006977303419262171,128.19151306152344,-191.6533203125,-0.002200431888923049,-0.09386728703975677,-0.1548461765050888,0.3426564335823059,-8.846051002819877e-08,3.6500159694696777e-06,-6.401992868632078e-05,0.871429922818129,0,None,None
102.67984287790023,0.0006977303419262171,128.19151306152344,-191.6533203125,-0.002200431888923049,-0.09386728703975677,-0.1548461765050888,0.3426564335823059,-7.348658925820928e-08,3.389147877896903e-06,7.73841020418331e-05,0.871429922818129,0,None,None
102.694820828503,0.0006977303419262171,128.19151306152344,-191.6533203125,-0.002217903034761548,-0.09386728703975677,-0.1548461765050888,0.3426564335823059,-4.489847782451761e-08,3.1184986255539116e-06,-0.00017411915177945048,0.871429922818129,0,None,None
102.7182933210861,0.0006977303419262171,128.19151306152344,-191.6533203125,-0.0022136305924504995,-0.09386728703975677,-0.1548461765050888,0.3426564335823059,-1.5515252016484737e-07,3.47605191564071e-06,0.0003851643414236605,0.871429922818129,0,None,None
102.72956863581203,0.0006977303419262171,128.19151306152344,-191.6533203125,-0.0022113800514489412,-0.09386728703975677,-0.1548461765050888,0.3426564335823059,-3.8292490955882386e-08,3.639007900346769e-06,0.00018946333148051053,0.871429922818129,0,None,None
102.74228390189819,0.0006977303419262171,128.19151306152344,-191.6533203125,-0.00221813190728426,-0.09386728703975677,-0.1548461765050888,0.3426564335823059,2.3175962482469004e-08,2.9364414331212174e-06,-0.0004520582442637533,0.871429922818129,0,None,None
102.76759688253514,0.0006977303419262171,128.19151306152344,-191.6533203125,-0.002212905790656805,-0.09386728703975677,-0.1548461765050888,0.3426564335823059,-1.3566925360919413e-07,3.628116019172012e-06,0.00045225032954476774,0.871429922818129,0,None,None
102.77901123347692,0.0006977303419262171,128.19151306152344,-191.6533203125,-0.002207794226706028,-0.09386728703975677,-0.1548461765050888,0.3426564335823059,-8.874688717241952e-08,3.74360706700827e-06,0.00010513644519960508,0.871429922818129,0,None,None
102.79103691293858,0.0006977303419262171,128.19151306152344,-191.6533203125,-0.002207794226706028,-0.09386728703975677,-0.1548461765050888,0.3426564335823059,-7.237249377567423e-08,3.677734639495611e-06,-1.3970979125588201e-05,0.871429922818129,0,None,None
102.8145427366253,0.0006977303419262171,128.19151306152344,-191.6533203125,-0.0022044372744858265,-0.09386728703975677,-0.15484619140625,0.3425491154193878,-9.245820820069639e-08,3.582518502298626e-06,0.00029956860817037523,0.871429922818129,0,None,None
102.825714338338,0.0006977303419262171,128.19151306152344,-191.6533203125,-0.0022027206141501665,-0.09386728703975677,-0.15484619140625,0.3425491154193878,-6.916292250025435e-08,3.284867716502049e-06,-8.582471491536126e-05,0.871429922818129,0,None,None
102.85098235565238,0.0006977303419262171,128.19151306152344,-191.6533203125,-0.0022064971271902323,-0.09386728703975677,-0.15484619140625,0.3425491154193878,-3.235996715034162e-08,3.2063410344562726e-06,-0.00028222627588547766,0.871429922818129,0,None,None
102.86216556630097,0.0006977303419262171,128.19151306152344,-191.6533203125,-0.0022012710105627775,-0.09386728703975677,-0.15484619140625,0.3425491154193878,-1.3656855912813626e-07,3.972644663008396e-06,0.00022454829013440758,0.871429922818129,0,None,None
102.87319334573112,0.0006977303419262171,128.19151306152344,-191.6533203125,-0.0022061539348214865,-0.09386728703975677,-0.15484619140625,0.3425491154193878,-2.1384911619293234e-08,3.2314237614627928e-06,-0.0003611609572544694,0.871429922818129,0,None,None
102.89819763298146,0.0006977303419262171,128.19151306152344,-191.6533203125,-0.0022061539348214865,-0.09386728703975677,-0.15484619140625,0.3425491154193878,-9.061069761173712e-08,3.888832907250617e-06,1.2139576028857846e-05,0.871429922818129,0,None,None
102.90921180392615,0.0006977303419262171,128.19151306152344,-191.6533203125,-0.0022015762515366077,-0.09386728703975677,-0.15484619140625,0.3425491154193878,-1.2483680222885596e-07,3.5811494853987824e-06,0.0001579732052050531,0.871429922818129,0,None,None
102.9321564573329,0.0006977303419262171,128.19151306152344,-191.6533203125,-0.0022015762515366077,-0.09386728703975677,-0.15484619140625,0.3425491154193878,-8.50431334242785e-08,3.49815923073038e-06,-4.859446926275268e-05,0.871429922818129,0,None,None
102.94689343473874,0.0006977303419262171,128.19151306152344,-191.6533203125,-0.0022156143095344305,-0.09386728703975677,-0.15484619140625,0.3425491154193878,7.48812425399592e-08,3.0443211471720133e-06,-0.000876251666340977,0.871429922818129,0,None,None
102.95849843672477,0.0006977303419262171,128.19151306152344,-191.6533203125,-0.0022182846441864967,-0.09386728703975677,-0.15484619140625,0.3425491154193878,-1.533597249192553e-08,3.3569265269761672e-06,-0.0003230953589081764,0.871429922818129,0,None,None
102.9829769290518,0.0006977303419262171,128.19151306152344,-191.6533203125,-0.0022151947487145662,-0.09386728703975677,-0.15484619140625,0.3425491154193878,-1.2428674267539463e-07,3.660986976683489e-06,0.00026201826403848827,0.871429922818129,0,None,None
102.99371307413094,0.0006977303419262171,128.19151306152344,-191.6533203125,-0.0022113800514489412,-0.09386728703975677,-0.15484619140625,0.3425491154193878,-3.067659903877029e-08,3.4434767712809844e-06,-5.2322800911497325e-05,0.871429922818129,0,None,None
103.01707144523971,0.0006977303419262171,128.19151306152344,-191.6533203125,-0.002210006583482027,-0.09386728703975677,-0.15484619140625,0.3425491154193878,-1.1460156912335151e-07,3.6737530990649248e-06,0.0001671094651101157,0.871429922818129,0,None,None
103.02810615464114,0.0006977303419262171,128.19151306152344,-191.6533203125,-0.002207794226706028,-0.09386728703975677,-0.15484619140625,0.3425491154193878,-1.2444797903299332e-07,3.7290831187419826e-06,0.00019127014093101025,0.871429922818129,0,None,None
103.04208849160932,0.0006977303419262171,128.19151306152344,-191.6533203125,-0.002215423621237278,-0.09386728703975677,-0.15484619140625,0.3425491154193878,-1.0445655362900652e-07,3.671215381473303e-06,0.0001343275507679209,0.871429922818129,0,None,None
103.06486184778623,0.0006977303419262171,128.19151306152344,-191.6533203125,-0.0022132492158561945,-0.09386728703975677,-0.15484619140625,0.3425491154193878,-7.348018726816008e-08,3.592183247747016e-06,0.00018576801812741905,0.871429922818129,0,None,None
103.0764614797663,0.0006977303419262171,128.19151306152344,-191.6533203125,-0.0022117614280432463,-0.09386728703975677,-0.15484619140625,0.3425491154193878,-9.43092146599156e-08,3.703546099131927e-06,5.502067870111205e-05,0.871429922818129,0,None,None
103.09996557119302,0.0006977303419262171,128.19151306152344,-191.6533203125,-0.0022117614280432463,-0.09386728703975677,-0.15484619140625,0.3425491154193878,-7.614318775495121e-08,3.632856532931328e-06,-4.154203998041339e-05,0.871429922818129,0,None,None
103.11169094196521,0.0006977303419262171,128.19151306152344,-191.6533203125,-0.0022117614280432463,-0.09386728703975677,-0.15484619140625,0.3425491154193878,-9.478127793727253e-08,3.260620815126458e-06,6.492477405117825e-05,0.871429922818129,0,None,None
103.13540570787154,0.0006977303419262171,128.19151306152344,-191.6533203125,-0.002213172847405076,-0.09386728703975677,-0.15484619140625,0.3425491154193878,-5.4620322487153317e-08,3.6037456538906554e-06,-0.00014570086204912513,0.871429922818129,0,None,None
103.1469545669388,0.0006977303419262171,128.19151306152344,-191.6533203125,-0.002213172847405076,-0.09386728703975677,-0.15484619140625,0.3425491154193878,0.0,0.0,0.0,0.871429922818129,0,None,None
103.16862188535742,0.0006977303419262171,128.19151306152344,-191.6533203125,-0.002209243830293417,-0.09386728703975677,-0.15484619140625,0.3425491154193878,-8.122646022457047e-08,3.2326322525477735e-06,0.00015206492389552295,0.871429922818129,0,None,None
103.17891351389699,0.0006977303419262171,128.19151306152344,-191.6533203125,-0.0022065734956413507,-0.09386728703975677,-0.15484619140625,0.3425491154193878,-1.92042790558844e-07,3.510247779558995e-06,0.00025073037249967456,0.871429922818129,0,None,None
103.19140404346399,0.0006977303419262171,128.19151306152344,-191.6533203125,-0.0022108459379523993,-0.09386728703975677,-0.15484619140625,0.3425491154193878,-1.3443523982914485e-07,3.4166150726377964e-06,2.6882462407229468e-05,0.871429922818129,0,None,None
103.2135338743683,0.0006977303419262171,128.19151306152344,-191.6533203125,-0.0022091674618422985,-0.09386728703975677,-0.15484619140625,0.3425491154193878,-1.5366764216651063e-07,3.4663476071727928e-06,0.00011859606456710026,0.871429922818129,0,None,None
103.2262072886806,0.0006977303419262171,128.19151306152344,-191.6533203125,-0.0022139358334243298,-0.09386728703975677,-0.15484619140625,0.3425491154193878,-1.2607080179805052e-07,3.424475380597869e-06,1.57964532263577e-05,0.871429922818129,0,None,None
103.25117460894398,0.0006977303419262171,128.19151306152344,-191.6533203125,-0.002221717732027173,-0.09386728703975677,-0.15484619140625,0.3425491154193878,-9.147916202323358e-09,3.1287734145735158e-06,-0.0005634563858620822,0.871429922818129,0,None,None
103.26167693524621,0.0006977303419262171,128.19151306152344,-191.6533203125,-0.0022155761253088713,-0.09386728703975677,-0.15484619140625,0.3425491154193878,-1.2318079711803875e-07,3.6795831874769647e-06,0.0002406076673651114,0.871429922818129,0,None,None
103.28390306211077,0.0006977303419262171,128.19151306152344,-191.6533203125,-0.0022155761253088713,-0.09386728703975677,-0.15484619140625,0.3425491154193878,-7.25744726537414e-08,3.568960664779297e-06,-1.2040892215736676e-05,0.871429922818129,0,None,None
103.29513069498353,0.0006977303419262171,128.19151306152344,-191.6533203125,-0.002213134663179517,-0.09386728703975677,-0.15484619140625,0.3425491154193878,-1.4519493163334118e-07,3.5780458347289823e-06,0.00015762003022246063,0.871429922818129,0,None,None
103.31690608127974,0.0006977303419262171,128.19151306152344,-191.6533203125,-0.002211952116340399,-0.09386728703975677,-0.15484619140625,0.3425491154193878,-1.3988697844524722e-07,3.5815942283079494e-06,0.0001050826977007091,0.871429922818129,0,None,None
103.32806531595998,0.0006977303419262171,128.19151306152344,-191.6533203125,-0.002211952116340399,-0.09386728703975677,-0.15484619140625,0.3425491154193878,-9.555893143442518e-08,3.496611043374287e-06,-0.00010620077227940783,0.871429922818129,0,None,None
103.350332375383,0.0006977303419262171,128.19151306152344,-191.6533203125,-0.0022107313852757215,-0.09386728703975677,-0.15484619140625,0.3425491154193878,-1.5567522382298193e-07,3.6549358810589183e-06,0.00018441281281411648,0.871429922818129,0,None,None
103.36156977317296,0.0006977303419262171,128.19151306152344,-191.6533203125,-0.0022118377964943647,-0.09386728703975677,-0.15484619140625,0.3425491154193878,-9.504379505642646e-08,3.535887117323e-06,-9.376991511089727e-05,0.871429922818129,0,None,None
103.37315569701605,0.0006977303419262171,128.19151306152344,-191.6533203125,-0.0022168350405991077,-0.09386728703975677,-0.15484619140625,0.3425491154193878,-3.3475224370249634e-08,3.3837811770354165e-06,-0.00038023965316824615,0.871429922818129,0,None,None
103.39660964324139,0.0006977303419262171,128.19151306152344,-191.6533203125,-0.0022148513235151768,-0.09386728703975677,-0.15484619140625,0.3425491154193878,-1.327483900581683e-08,3.5659804780152626e-06,0.0001779042650014162,0.871429922818129,0,None,None
103.41892571817152,0.0006977303419262171,128.19151306152344,-191.6533203125,-0.002213821280747652,-0.09386728703975677,-0.15484619140625,0.3425491154193878,-1.4725199548593082e-07,3.7300096664694138e-06,0.000227895041462034,0.871429922818129,0,None,None
103.4316825333517,0.0006977303419262171,128.19151306152344,-191.6533203125,-0.002218818524852395,-0.09386728703975677,-0.15484619140625,0.3425491154193878,-2.7239439148729616e-08,3.417555717533105e-06,-0.0003759194805752486,0.871429922818129,0,None,None
103.44369723903947,0.0006977303419262171,128.19151306152344,-191.6533203125,-0.0022188567090779543,-0.09386728703975677,-0.15484619140625,0.3425491154193878,-1.1803815169741938e-07,3.711990984811564e-06,0.00012935347331222147,0.871429922818129,0,None,None
103.46669586445205,0.0006977303419262171,128.19151306152344,-191.6533203125,-0.0022201156243681908,-0.09386728703975677,-0.15484619140625,0.3425491154193878,-7.261522227963724e-08,3.5754287637246307e-06,-9.961062460206449e-05,0.871429922818129,0,None,None
103.478182654595,0.0006977303419262171,128.19151306152344,-191.6533203125,-0.002219085581600666,-0.09386728703975677,-0.15484619140625,0.3425491154193878,-9.977433279573233e-08,3.253298245908809e-06,6.035644037183374e-05,0.871429922818129,0,None,None
103.50071427761577,0.0006977303419262171,128.19151306152344,-191.6533203125,-0.002219085581600666,-0.09386728703975677,-0.15484619140625,0.3425491154193878,-1.0834831698502967e-07,3.736475491677993e-06,8.145577157847583e-05,0.871429922818129,0,None,None
103.51239066640846,0.0006977303419262171,128.19151306152344,-191.6533203125,-0.002219085581600666,-0.09386728703975677,-0.15484619140625,0.3425491154193878,-3.142864457572614e-08,3.4965014492627233e-06,-7.428617391269654e-05,0.871429922818129,0,None,None
103.53533693472855,0.0006977303419262171,128.19151306152344,-191.6533203125,-0.002219085581600666,-0.09386728703975677,-0.15484619140625,0.3425491154193878,-1.088291128326091e-07,3.2962695968308253e-06,0.00010146393469767645,0.871429922818129,0,None,None
103.54568034573458,0.0006977303419262171,128.19151306152344,-191.6533203125,-0.0022154615726321936,-0.09386728703975677,-0.15484619140625,0.3425491154193878,-1.4815130100487295e-07,3.3955973322008504e-06,0.0002760171191766858,0.871429922818129,0,None,None
103.56879744189791,0.0006977303419262171,128.19151306152344,-191.6533203125,-0.0022128296550363302,-0.09386728703975677,-0.15484619140625,0.3425491154193878,-1.4596385256027133e-07,3.334381517561269e-06,0.00039197306614369154,0.871429922818129,0,None,None
103.57930853846483,0.0006977303419262171,128.19151306152344,-191.6533203125,-0.002208556979894638,-0.09386728703975677,-0.15484619140625,0.3425491154193878,-1.5691330190747976e-07,3.415776745896437e-06,0.0003939523594453931,0.871429922818129,0,None,None
103.59356341301464,0.0006977303419262171,128.19151306152344,-191.6533203125,-0.002215499756857753,-0.09386728703975677,-0.15484619140625,0.3425491154193878,-1.1627969342953293e-07,3.3754574815247906e-06,0.00024701235815882683,0.871429922818129,0,None,None
103.61617108411156,0.0006977303419262171,128.19151306152344,-191.6533203125,-0.0022129439748823643,-0.09386728703975677,-0.15484619140625,0.3425491154193878,-1.1594034532436126e-07,3.6040437407791615e-06,0.00021783019474241883,0.871429922818129,0,None,None
103.62710348214023,0.0006977303419262171,128.19151306152344,-191.6533203125,-0.0022126769181340933,-0.09386728703975677,-0.15484619140625,0.3425491154193878,-3.972614592839818e-08,3.1853605833020993e-06,-0.00021544638730119914,0.871429922818129,0,None,None
103.65098714246415,0.0006977303419262171,128.19151306152344,-191.6533203125,-0.002210540696978569,-0.09386728703975677,-0.15484619140625,0.3425491154193878,-1.1657946430432276e-07,3.8616217352682725e-06,0.00018413701036479324,0.871429922818129,0,None,None
103.66259190323763,0.0006977303419262171,128.19151306152344,-191.6533203125,-0.002209243830293417,-0.09386728703975677,-0.15484619140625,0.3425491154193878,-5.205627573445781e-08,3.5122548069921322e-06,4.707681728177704e-05,0.871429922818129,0,None,None
103.67418240266852,0.0006977303419262171,128.19151306152344,-191.6533203125,-0.0022173309698700905,-0.09386728703975677,-0.15484619140625,0.3425491154193878,2.2785387798762713e-08,3.495891405691509e-06,-0.000564085494261235,0.871429922818129,0,None,None
103.70086919213645,0.0006977303419262171,128.19151306152344,-191.6533203125,-0.0022203826811164618,-0.09386728703975677,-0.15484619140625,0.3425491154193878,-7.281487057753111e-08,3.5823741200147197e-06,-0.00022916006855666637,0.871429922818129,0,None,None
103.71290458808653,0.0006977303419262171,128.19151306152344,-191.6533203125,-0.0022203826811164618,-0.09386728703975677,-0.15484619140625,0.3425491154193878,-7.721362749180116e-08,3.426382136240136e-06,3.590048072510399e-05,0.871429922818129,0,None,None
103.72580290469341,0.0006977303419262171,128.19151306152344,-191.6533203125,-0.0022252274211496115,-0.09386728703975677,-0.15484619140625,0.3425491154193878,-3.051012598120906e-08,3.3259461815760005e-06,-0.00018963047477882355,0.871429922818129,0,None,None
103.750992822228,0.0006977303419262171,128.19151306152344,-191.6533203125,-0.0022252274211496115,-0.09386728703975677,-0.15484619140625,0.3425491154193878,-6.770132898736847e-08,3.465008830971783e-06,2.5057544917217456e-05,0.871429922818129,0,None,None
103.76509306649677,0.0006977303419262171,128.19151306152344,-191.6533203125,-0.0022322845179587603,-0.09386728703975677,-0.15484619140625,0.3425491154193878,7.36268717105304e-08,3.0516785045620054e-06,-0.0005026357248425484,0.871429922818129,0,None,None
103.77576721715741,0.0006977303419262171,128.19151306152344,-191.6533203125,-0.00223339069634676,-0.09386728703975677,-0.15484619140625,0.3425491154193878,-1.9978033449774557e-08,3.3499438814033056e-06,-0.0004540325317066163,0.871429922818129,0,None,None
103.80139913759194,0.0006977303419262171,128.19151306152344,-191.6533203125,-0.0022300337441265583,-0.09386728703975677,-0.15484619140625,0.3425491154193878,-1.0655669058223793e-07,3.5937223401560914e-06,0.0002782024093903601,0.871429922818129,0,None,None
103.8132511691656,0.0006977303419262171,128.19151306152344,-191.6533203125,-0.002227783203125,-0.09386728703975677,-0.15484619140625,0.3425491154193878,-9.354145191764474e-08,3.603943468988291e-06,0.0001828552776714787,0.871429922818129,0,None,None
103.83589756279252,0.0006977303419262171,128.19151306152344,-191.6533203125,-0.0022214127238839865,-0.09386728703975677,-0.15484619140625,0.3425491154193878,-6.675661978761127e-08,3.5520502024155576e-06,0.00022374799300450832,0.871429922818129,0,None,None
103.84728716756217,0.0006977303419262171,128.19151306152344,-191.6533203125,-0.002219047397375107,-0.09386728703975677,-0.15484619140625,0.3425491154193878,-6.5572677954151e-08,3.5657710668601794e-06,0.00020113648497499526,0.871429922818129,0,None,None
103.86006947490387,0.0006977303419262171,128.19151306152344,-191.6533203125,-0.0022216415964066982,-0.09386728703975677,-0.15484619140625,0.3425491154193878,-2.188666137215023e-08,3.4803197195287794e-06,-3.399858087504981e-06,0.871429922818129,0,None,None
103.88389601721428,0.0006977303419262171,128.19151306152344,-191.6533203125,-0.0022201156243681908,-0.09386728703975677,-0.15484619140625,0.3425491154193878,-1.3623503036797047e-07,3.7695979244745104e-06,0.00013005535583943129,0.871429922818129,0,None,None
103.89602829120122,0.0006977303419262171,128.19151306152344,-191.6533203125,-0.0022179412189871073,-0.09386728703975677,-0.15484619140625,0.3425491154193878,-6.914429917515008e-08,3.638765747382422e-06,0.00019898575555998832,0.871429922818129,0,None,None
103.91833062539808,0.0006977303419262171,128.19151306152344,-191.6533203125,-0.0022151947487145662,-0.09386728703975677,-0.15484619140625,0.3425491154193878,-1.249788255108797e-07,3.5567604754760396e-06,0.00024002663849387318,0.871429922818129,0,None,None
103.92987149464898,0.0006977303419262171,128.19151306152344,-191.6533203125,-0.0022151947487145662,-0.09386728703975677,-0.15484619140625,0.3425491154193878,-5.268258718160723e-08,3.368374791534734e-06,7.434233702952042e-05,0.871429922818129,0,None,None
103.94222386437468,0.0006977303419262171,128.19151306152344,-191.6533203125,-0.002224502619355917,-0.09386728703975677,-0.15484619140625,0.3425491154193878,-1.0851653797772087e-08,3.267782631155569e-06,-0.0005726016242988408,0.871429922818129,0,None,None
103.9670245477464,0.0006977303419262171,128.19151306152344,-191.6533203125,-0.002224502619355917,-0.09386728703975677,-0.15484619140625,0.3425491154193878,0.0,0.0,0.0,0.871429922818129,0,None,None
103.97802309482358,0.0006977303419262171,128.19151306152344,-191.6533203125,-0.002228393452242017,-0.09386728703975677,-0.15484619140625,0.3425491154193878,2.867774995252148e-08,3.129369588350528e-06,-0.00043156591709703207,0.871429922818129,0,None,None
104.00172601523809,0.0006977303419262171,128.19151306152344,-191.6533203125,-0.002228393452242017,-0.09386728703975677,-0.15484619140625,0.3425491154193878,-6.074493086316579e-08,3.3876251563924598e-06,6.012219455442391e-05,0.871429922818129,0,None,None
104.01369931153022,0.0006977303419262171,128.19151306152344,-191.6533203125,-0.0022299576085060835,-0.09386728703975677,-0.15484619140625,0.3425491154193878,-1.2857490183648679e-08,3.2557500162511133e-06,-0.0001786073116818443,0.871429922818129,0,None,None
104.03585078637116,0.0006977303419262171,128.19151306152344,-191.6533203125,-0.0022286223247647285,-0.09386728703975677,-0.15484619140625,0.3425491154193878,-1.532351632249629e-07,3.4492695704102516e-06,0.0003315103822387755,0.871429922818129,0,None,None
104.05017055920325,0.0006977303419262171,128.19151306152344,-191.6533203125,-0.0022407150827348232,-0.09386728703975677,-0.15484619140625,0.3425491154193878,7.315422578813013e-08,3.0651035558548756e-06,-0.0008062867564149201,0.871429922818129,0,None,None
104.06093289121054,0.0006977303419262171,128.19151306152344,-191.6533203125,-0.002236442407593131,-0.09386728703975677,-0.15484619140625,0.3425491154193878,-4.791538188442246e-08,3.430587184993783e-06,9.281455277232453e-05,0.871429922818129,0,None,None
104.08476803521626,0.0006977303419262171,128.19151306152344,-191.6533203125,-0.0022383497562259436,-0.09386728703975677,-0.15484619140625,0.3425491154193878,-8.56630464340924e-08,3.5156867852492724e-06,-0.0001455386372981593,0.871429922818129,0,None,None
104.0961545209866,0.0006977303419262171,128.19151306152344,-191.6533203125,-0.0022344207391142845,-0.09386728703975677,-0.15484619140625,0.3425491154193878,-1.5845871814690327e-07,3.72268482351501e-06,0.00020688177028205246,0.871429922818129,0,None,None
104.11829160689376,0.0006977303419262171,128.19151306152344,-191.6533203125,-0.0022323608864098787,-0.09386728703975677,-0.15484619140625,0.3425491154193878,-1.5782366347139032e-07,3.7520285331993364e-06,0.0001795068383216858,0.871429922818129,0,None,None
104.13331151078455,0.0006977303419262171,128.19151306152344,-191.6533203125,-0.0022470855619758368,-0.09386728703975677,-0.15484619140625,0.3425491154193878,9.986164428710254e-08,3.015054289789987e-06,-0.000932760420255363,0.871429922818129,0,None,None
104.14664678811096,0.0006977303419262171,128.19151306152344,-191.6533203125,-0.0022507095709443092,-0.09386728703975677,-0.15484619140625,0.3425491154193878,-4.980887524652644e-08,3.492548103167792e-06,-0.0002583606692496687,0.871429922818129,0,None,None
104.16841030749492,0.0006977303419262171,128.19151306152344,-191.6533203125,-0.00224132533185184,-0.09386728703975677,-0.15484619140625,0.3425491154193878,-2.3394298409584735e-07,3.7764827993669314e-06,0.00044694289681501687,0.871429922818129,0,None,None
104.18253506324254,0.0006977303419262171,128.19151306152344,-191.6533203125,-0.0022491072304546833,-0.09386728703975677,-0.15484619140625,0.3425491154193878,3.482040256130858e-08,3.290418362666969e-06,-0.0005252851988188922,0.871429922818129,0,None,None
104.19683223939501,0.0006977303419262171,128.19151306152344,-191.6533203125,-0.0022563552483916283,-0.09386728703975677,-0.15484619140625,0.3425491154193878,3.4552648742192105e-08,3.068973228437244e-06,-0.0004804341297131032,0.871429922818129,0,None,None
104.20872076484375,0.0006977303419262171,128.19151306152344,-191.6533203125,-0.0022490310948342085,-0.09386728703975677,-0.15484619140625,0.3425491154193878,-6.695743337559179e-08,3.637205736595206e-06,0.0003156386374030262,0.871429922818129,0,None,None
104.23321695043705,0.0006977303419262171,128.19151306152344,-191.6533203125,-0.0022490310948342085,-0.09386728703975677,-0.15484619140625,0.3425491154193878,-5.938927571946806e-09,3.490275730655412e-06,-2.2095673557487316e-05,0.871429922818129,0,None,None
104.24484088062309,0.0006977303419262171,128.19151306152344,-191.6533203125,-0.0022438049782067537,-0.09386728703975677,-0.15484619140625,0.3425491154193878,-1.3005279697608785e-07,3.5931682305090362e-06,0.0001527532294858247,0.871429922818129,0,None,None
104.26889842539094,0.0006977303419262171,128.19151306152344,-191.6533203125,-0.0022416305728256702,-0.09386728703975677,-0.15484619140625,0.3425491154193878,-5.1145324420076577e-08,3.4131201118725585e-06,0.00017547413881402463,0.871429922818129,0,None,None
104.27969494904391,0.0006977303419262171,128.19151306152344,-191.6533203125,-0.0022366333287209272,-0.09386728703975677,-0.15484619140625,0.3425491154193878,-1.953030022150415e-07,3.786573643083102e-06,0.00044876450556330383,0.871429922818129,0,None,None
104.2916928564664,0.0006977303419262171,128.19151306152344,-191.6533203125,-0.0022320174612104893,-0.09386728703975677,-0.15484619140625,0.3425491154193878,-8.713512045233074e-08,3.737418410310056e-06,0.00029782357160001993,0.871429922818129,0,None,None
104.3137877273839,0.0006977303419262171,128.19151306152344,-191.6533203125,-0.002228393452242017,-0.09386728703975677,-0.15484619140625,0.3425491154193878,-1.8146994307244313e-07,3.768191618291894e-06,0.00031962883076630533,0.871429922818129,0,None,None
104.32608406222425,0.0006977303419262171,128.19151306152344,-191.6533203125,-0.0022256469819694757,-0.09386728703975677,-0.15484619140625,0.3425491154193878,-1.4790741431625065e-07,3.6788987927138805e-06,0.00032555090729147196,0.871429922818129,0,None,None
104.34825341659598,0.0006977303419262171,128.19151306152344,-191.6533203125,-0.002223968505859375,-0.09386728703975677,-0.15484619140625,0.3425491154193878,-1.5868513969508058e-07,3.728384626811021e-06,0.00014347782416734844,0.871429922818129,0,None,None
104.36138341925107,0.0006977303419262171,128.19151306152344,-191.6533203125,-0.0022285841405391693,-0.09386728703975677,-0.15484619140625,0.3425491154193878,0.0,0.0,0.0,0.871429922818129,0,None,None
104.38474823976867,0.0006977303419262171,128.19151306152344,-191.6533203125,-0.0022285841405391693,-0.09386728703975677,-0.15484619140625,0.3425491154193878,-8.604664003541984e-08,3.338989245094126e-06,1.710289143375121e-05,0.871429922818129,0,None,None
104.39605603157543,0.0006977303419262171,128.19151306152344,-191.6533203125,-0.0022264861036092043,-0.09386728703975677,-0.15484619140625,0.3425491154193878,-1.463119332356655e-07,3.5784369174507447e-06,0.00010631329496391118,0.871429922818129,0,None,None
104.40855042240582,0.0006977303419262171,128.19151306152344,-191.6533203125,-0.002229232806712389,-0.09386728703975677,-0.15484619140625,0.3425491154193878,-7.417518332886175e-08,3.4286663321836386e-06,-1.5864714441704564e-05,0.871429922818129,0,None,None
104.43226098339073,0.0006977303419262171,128.19151306152344,-191.6533203125,-0.002229232806712389,-0.09386728703975677,-0.15484619140625,0.3425491154193878,-3.607710752362436e-08,3.521991857269313e-06,3.1275496894522803e-06,0.871429922818129,0,None,None
104.44413853320293,0.0006977303419262171,128.19151306152344,-191.6533203125,-0.002229232806712389,-0.09386728703975677,-0.15484619140625,0.3425491154193878,-8.844654075801373e-08,3.449634959906689e-06,4.074004391441122e-05,0.871429922818129,0,None,None
104.46812346647494,0.0006977303419262171,128.19151306152344,-191.6533203125,-0.0022303771693259478,-0.09386728703975677,-0.15484619140625,0.34243911504745483,-1.4411517668122542e-07,3.578304131224286e-06,-0.00010771633969852701,0.871429922818129,0,None,None
104.48084503947757,0.0006977303419262171,128.19151306152344,-191.6533203125,-0.002233161823824048,-0.09386728703975677,-0.15484619140625,0.34243911504745483,-3.503751955236112e-08,3.3419298688386334e-06,-0.00020972448692191392,0.871429922818129,0,None,None
104.4926168655511,0.0006977303419262171,128.19151306152344,-191.6533203125,-0.0022412107791751623,-0.09386728703975677,-0.15484619140625,0.34243911504745483,8.730916079002782e-08,3.000805008923635e-06,-0.000602689222432673,0.871429922818129,0,None,None
104.517953165574,0.0006977303419262171,128.19151306152344,-191.6533203125,-0.0022373581305146217,-0.09386728703975677,-0.15484619140625,0.34243911504745483,-8.138187723716328e-08,3.497809984764899e-06,0.00033696673926897347,0.871429922818129,0,None,None
104.52904087002389,0.0006977303419262171,128.19151306152344,-191.6533203125,-0.0022338104899972677,-0.09386728703975677,-0.15484619140625,0.34243911504745483,-1.2705685037417425e-07,3.624875034802244e-06,0.000311642128508538,0.871429922818129,0,None,None
104.54305688361637,0.0006977303419262171,128.19151306152344,-191.6533203125,-0.0022362135350704193,-0.09386728703975677,-0.15484619140625,0.34243911504745483,-1.5045225154608488e-07,3.6789756450161804e-06,0.0004721672448795289,0.871429922818129,0,None,None
104.56580460700206,0.0006977303419262171,128.19151306152344,-191.6533203125,-0.0022362135350704193,-0.09386728703975677,-0.15484619140625,0.34243911504745483,-3.212422683418481e-08,3.63425806426676e-06,5.7291192206321284e-05,0.871429922818129,0,None,None
104.57768900482915,0.0006977303419262171,128.19151306152344,-191.6533203125,-0.0022341536823660135,-0.09386728703975677,-0.15484619140625,0.34243911504745483,-2.9874499318793823e-08,3.4068220884364564e-06,2.9925993658252992e-05,0.871429922818129,0,None,None
104.60156249231659,0.0006977303419262171,128.19151306152344,-191.6533203125,-0.0022320938296616077,-0.09386728703975677,-0.15484619140625,0.34243911504745483,-9.319163041254797e-08,3.6016035664943047e-06,0.0001370314712403342,0.871429922818129,0,None,None
104.61295324913226,0.0006977303419262171,128.19151306152344,-191.6533203125,-0.00222576130181551,-0.09386728703975677,-0.15484619140625,0.34243911504745483,-1.8744438534668006e-07,3.822864982794272e-06,0.0003513044794090092,0.871429922818129,0,None,None
104.63601211435162,0.0006977303419262171,128.19151306152344,-191.6533203125,-0.002227210905402899,-0.09386728703975677,-0.15484619140625,0.34243911504745483,-5.703885008756515e-08,3.5011580621358007e-06,-0.00011188846838194877,0.871429922818129,0,None,None
104.6467623792123,0.0006977303419262171,128.19151306152344,-191.6533203125,-0.0022237396333366632,-0.09386728703975677,-0.15484619140625,0.34243911504745483,-1.4143762427920592e-07,3.7257977965055034e-06,0.00031337729888036847,0.871429922818129,0,None,None
104.66916954400949,0.0006977303419262171,128.19151306152344,-191.6533203125,-0.0022201156243681908,-0.09386728703975677,-0.15484619140625,0.34243911504745483,-8.643779381145578e-08,3.602385959311505e-06,0.00022049043036531657,0.871429922818129,0,None,None
104.6808056270238,0.0006977303419262171,128.19151306152344,-191.6533203125,-0.0022201156243681908,-0.09386728703975677,-0.15484619140625,0.34243911504745483,-8.969276166226336e-08,3.6110145629209e-06,1.5124424862733576e-05,0.871429922818129,0,None,None
104.69300168356858,0.0006977303419262171,128.19151306152344,-191.6533203125,-0.002221603412181139,-0.09386728703975677,-0.15484619140625,0.34243911504745483,-1.198216352804593e-07,3.6784749681828544e-06,-3.754620047402568e-05,0.871429922818129,0,None,None
104.71574631310068,0.0006977303419262171,128.19151306152344,-191.6533203125,-0.0022194671910256147,-0.09386728703975677,-0.15484619140625,0.34243911504745483,-1.3278447852371755e-07,3.5116074741381453e-06,0.00023177234106697142,0.871429922818129,0,None,None
104.72733314032666,0.0006977303419262171,128.19151306152344,-191.6533203125,-0.0022212218027561903,-0.09386728703975677,-0.15484619140625,0.34243911504745483,-5.898705879303634e-08,3.4988111110578757e-06,-0.0001564294652780518,0.871429922818129,0,None,None
104.75090750749223,0.0006977303419262171,128.19151306152344,-191.6533203125,-0.0022200392559170723,-0.09386728703975677,-0.15484619140625,0.34243911504745483,-1.4869263509353914e-07,3.5579967061494244e-06,0.00010319970897398889,0.871429922818129,0,None,None
104.76330912928097,0.0006977303419262171,128.19151306152344,-191.6533203125,-0.0022224807180464268,-0.09386728703975677,-0.15484619140625,0.34243911504745483,-5.0483503599707547e-08,3.3299204460490728e-06,-0.00018827221356332302,0.871429922818129,0,None,None
104.77627150411718,0.0006977303419262171,128.19151306152344,-191.6533203125,-0.002226714976131916,-0.09386728703975677,-0.15484619140625,0.34243911504745483,-5.275476766541942e-08,2.604429482744308e-06,-1.192162380903028e-05,0.871429922818129,0,None,None
104.80000097933225,0.0006977303419262171,128.19151306152344,-191.6533203125,-0.0022222900297492743,-0.09386728703975677,-0.15484619140625,0.34243911504745483,-1.3720942604322772e-07,3.5728351122088498e-06,0.0003949589445255697,0.871429922818129,0,None,None
104.81182874157093,0.0006977303419262171,128.19151306152344,-191.6533203125,-0.0022180175874382257,-0.09386728703975677,-0.15484619140625,0.34243911504745483,-6.537709396070568e-08,3.623063548729988e-06,0.00019732190412469208,0.871429922818129,0,None,None
104.83580164215527,0.0006977303419262171,128.19151306152344,-191.6533203125,-0.0022180175874382257,-0.09386728703975677,-0.15484619140625,0.34243911504745483,-1.4823628191606986e-07,3.5770608519669622e-06,-5.733880971092731e-05,0.871429922818129,0,None,None
104.84797598584555,0.0006977303419262171,128.19151306152344,-191.6533203125,-0.0022180175874382257,-0.09386728703975677,-0.15484619140625,0.34243911504745483,-7.602152862773437e-08,3.4264101032022154e-06,1.133909790951293e-05,0.871429922818129,0,None,None
104.86122191394679,0.0006977303419262171,128.19151306152344,-191.6533203125,-0.0022225570864975452,-0.09386728703975677,-0.15484619140625,0.34243911504745483,-7.961294556935172e-08,3.4525105547800194e-06,4.3096144509036094e-05,0.871429922818129,0,None,None
104.88467518030666,0.0006977303419262171,128.19151306152344,-191.6533203125,-0.002218818524852395,-0.09386728703975677,-0.15484619140625,0.34243911504745483,-1.2587639730554656e-07,3.5613379623100627e-06,0.0002695379953365773,0.871429922818129,0,None,None
104.89655500347726,0.0006977303419262171,128.19151306152344,-191.6533203125,-0.002218818524852395,-0.09386728703975677,-0.15484619140625,0.34243911504745483,-4.681525567207245e-08,3.403190021344926e-06,7.573010952910408e-05,0.871429922818129,0,None,None
